State,District,Latitude,Longitude,District code,Population,Male,Female,Literate,Male_Literate,Female_Literate,SC,Male_SC,Female_SC,ST,Male_ST,Female_ST,Workers,Male_Workers,Female_Workers,Hindus,Muslims,Christians,Sikhs,Buddhists,Jains,Others_Religions,literacy_rate,sex_ratio,Male_literacy_rate,Female_literacy_rate
Andhra Pradesh,Adilabad,19.284513950073435,78.81321233480176,532,2741239,1369597,1371642,1483347,856350,626997,488596,242844,245752,495794,247472,248322,1323667,748939,574728,2399901,275970,15422,1377,25510,617,322,54.11,100.15,62.53,45.71
Andhra Pradesh,Anantapur,14.312065561843148,77.4601584478577,553,4081148,2064495,2016653,2310960,1338474,972486,583135,292379,290756,154127,78573,75554,2036166,1208544,827622,3599372,443456,20463,932,341,1417,309,56.63,97.68,64.83,48.22
Andhra Pradesh,Chittoor,13.33109263067696,78.92763898886037,554,4174064,2090204,2083860,2667878,1484794,1183084,785760,389582,396178,159165,79756,79409,1933357,1202223,731134,3737588,397870,24129,867,253,1322,358,63.92,99.7,71.04,56.77
Andhra Pradesh,East Godavari,16.782718320784902,82.2432074720511,545,5154296,2569688,2584608,3288577,1716933,1571644,945269,468883,476386,213195,104422,108773,2093681,1545831,547850,4983330,77777,77825,738,413,4149,403,63.8,100.58,66.81,60.81
Andhra Pradesh,Guntur,15.884925767634847,80.58657614107885,548,4887813,2440521,2447292,2960441,1634726,1325715,957407,476333,481074,247089,125105,121984,2381624,1442370,939254,4217597,559770,89763,764,323,3282,332,60.57,100.28,66.98,54.17
Andhra Pradesh,Hyderabad,17.38971555555556,78.46668888888888,536,3943323,2018575,1924748,2892155,1542688,1349467,247927,124313,123614,48937,25556,23381,1413297,1045585,367712,2046051,1713405,87522,11446,1268,19560,1929,73.34,95.35,76.42,70.11
Andhra Pradesh,Karimnagar,18.515483193277312,79.43765428571413,534,3776269,1880800,1895469,2206829,1257238,949591,709757,352481,357276,106745,53495,53250,1876768,1049463,827305,3491139,244723,24979,2086,332,312,115,58.44,100.78,66.85,50.1
Andhra Pradesh,Khammam,17.683921325051784,80.67008643892335,541,2797370,1390988,1406382,1630234,901640,728594,462896,229905,232991,765565,378532,387033,1410062,802906,607156,2595321,158887,33463,655,217,459,539,58.28,101.11,64.82,51.81
Andhra Pradesh,Krishna,16.143872753151673,81.14805061000413,547,4517398,2267375,2250023,3009718,1598959,1410759,871063,435412,435651,132464,66734,65730,2048880,1327299,721581,4023678,307043,145598,1393,863,6320,906,66.63,99.23,70.52,62.7
Andhra Pradesh,Kurnool,15.43759715142429,77.90086836581717,552,4053463,2039227,2014236,2127161,1246369,880792,737945,370215,367730,82831,42052,40779,2029425,1164122,865303,3328380,670737,33165,737,255,2235,434,52.48,98.77,61.12,43.73
Andhra Pradesh,Mahbubnagar,16.639546224256293,77.98933089244859,538,4053028,2050386,2002642,1940646,1158386,782260,708954,356099,352855,364269,187035,177234,2082501,1140067,942434,3673456,334172,21345,658,290,388,267,47.88,97.67,56.5,39.06
Andhra Pradesh,Medak,17.889304978038055,78.13778901903379,535,3033288,1523030,1510258,1637137,953406,683731,537947,266413,271534,168985,86574,82411,1442203,837874,604329,2637313,342449,34301,1309,554,457,217,53.97,99.16,62.6,45.27
Andhra Pradesh,Nalgonda,17.113250515463907,79.16984453608244,539,3488809,1759772,1729037,2001019,1160757,840262,637385,318359,319026,394279,203876,190403,1741693,976428,765265,3249231,188646,35025,937,241,250,132,57.36,98.25,65.96,48.6
Andhra Pradesh,Nizamabad,18.429485849056604,78.07523490566035,533,2551335,1250641,1300694,1389810,790214,599596,371074,178798,192276,192941,95679,97262,1261076,684320,576756,2123426,391596,19653,2357,1847,542,146,54.47,104.0,63.18,46.1
Andhra Pradesh,Prakasam,15.489039001601704,80.11665790176184,549,3397448,1714764,1682684,1904435,1107686,796749,787861,397242,390619,151145,76677,74468,1700567,991842,708725,3150195,220654,18775,266,97,204,206,56.05,98.13,64.6,47.35
Andhra Pradesh,Srikakulam,18.570900998697432,84.25874814010675,542,2703114,1341738,1361376,1495381,857824,637557,255664,125214,130450,166118,81382,84736,1290288,766483,523805,2666950,9025,18879,193,77,160,106,55.32,101.46,63.93,46.83
Andhra Pradesh,Vizianagaram,18.28329696032972,83.45982854198873,543,2344474,1161477,1182997,1238388,707503,530885,247728,121493,126235,235556,114687,120869,1157962,679289,478673,2299129,16423,17853,380,114,815,183,52.82,101.85,60.91,44.88
Andhra Pradesh,Warangal,18.01752608695651,79.87422028985509,540,3512576,1759281,1753295,2065023,1179790,885233,616102,307709,308393,530656,268976,261680,1705655,960926,744729,3273755,197333,31377,1453,253,569,126,58.79,99.66,67.06,50.49
Andhra Pradesh,West Godavari,16.63297943925236,81.45912990654196,546,3936966,1964918,1972048,2652389,1379223,1273166,811698,403693,408005,109072,53367,55705,1773112,1199338,573774,3733191,86142,109120,288,209,1578,211,67.37,100.36,70.19,64.56
Arunachal Pradesh,Changlang,27.36048479338845,96.37552644628106,253,148226,76948,71278,73174,44027,29147,0,0,0,53878,27061,26817,62966,39329,23637,47683,2134,35969,94,50381,95,11738,49.37,92.63,57.22,40.89
Arunachal Pradesh,East Kameng,27.371194055944056,93.04741486013997,247,78690,38775,39915,38449,21599,16850,0,0,0,72400,35266,37134,31710,16424,15286,12333,652,37136,36,452,23,27868,48.86,102.94,55.7,42.21
Arunachal Pradesh,East Siang,28.15382352941176,95.06499226006191,251,99214,50116,49098,62576,34210,28366,0,0,0,69979,34533,35446,40222,23591,16631,27854,2289,18254,69,776,30,49393,63.07,97.97,68.26,57.77
Arunachal Pradesh,Kurung Kumey,28.04853351800553,93.24531994459834,256,92076,45318,46758,36606,20258,16348,0,0,0,90764,44459,46305,38044,18429,19615,4859,471,51189,43,121,81,34158,39.76,103.18,44.7,34.96
Arunachal Pradesh,Lohit,27.946785273972623,96.59670770547945,259,145726,76221,69505,83062,48380,34682,0,0,0,47410,23457,23953,60945,38910,22035,99020,3846,10684,210,24452,104,7277,57.0,91.19,63.47,49.9
Arunachal Pradesh,Lower Dibang Valley,28.32651730103806,95.76567335640142,258,54080,28053,26027,31849,18087,13762,0,0,0,25974,12649,13325,22326,14102,8224,28915,2247,9213,33,2932,19,10393,58.89,92.78,64.47,52.88
Arunachal Pradesh,Lower Subansiri,27.70849297297297,93.96226108108112,255,83030,41843,41187,54057,29470,24587,0,0,0,72911,35803,37108,30202,17339,12863,9551,1482,34402,27,193,13,37085,65.11,98.43,70.43,59.7
Arunachal Pradesh,Papum Pare,27.273529716981127,93.54468183962264,248,176573,89182,87391,121048,65794,55254,0,0,0,117216,56469,60747,65772,41263,24509,57027,6148,84397,310,4768,139,22586,68.55,97.99,73.77,63.23
Arunachal Pradesh,Tawang,27.680683962264148,91.82504245283016,245,49977,29151,20826,26073,17720,8353,0,0,0,34811,16770,18041,28561,19554,9007,11842,787,776,1164,34920,72,349,52.17,71.44,60.79,40.11
Arunachal Pradesh,Tirap,26.94406229508198,95.41470327868862,254,111975,57604,54371,47974,29313,18661,0,0,0,98372,49365,49007,50169,27545,22624,20682,1103,83361,61,778,43,5325,42.84,94.39,50.89,34.32
Arunachal Pradesh,Upper Siang,28.8309244897959,95.00155765306124,252,35320,18699,16621,18195,10723,7472,0,0,0,28468,14413,14055,17644,9968,7676,5261,411,5643,27,2577,7,20967,51.51,88.89,57.35,44.96
Arunachal Pradesh,Upper Subansiri,28.277196566523585,93.8991435622318,249,83448,41758,41690,45278,24807,20471,0,0,0,78323,38570,39753,33370,17898,15472,13474,521,8779,28,297,11,59449,54.26,99.84,59.41,49.1
Arunachal Pradesh,West Kameng,27.46486582278483,92.65015750452083,246,83947,46155,37792,48492,29566,18926,0,0,0,46380,22771,23609,42493,28313,14180,31265,1970,8466,328,36087,71,5556,57.77,81.88,64.06,50.08
Arunachal Pradesh,West Siang,28.106296920289843,94.53510344202908,250,112274,58168,54106,64746,36777,27969,0,0,0,92783,45746,47037,49177,29156,20021,15881,2218,29969,577,3311,49,60005,57.67,93.02,63.23,51.69
Assam,Barpeta,26.427872264631056,90.97912010178116,303,1693622,867004,826618,897058,499038,398020,95320,49165,46155,27344,13530,13814,561824,445297,116527,492966,1198036,1020,112,49,399,14,52.97,95.34,57.56,48.15
Assam,Bongaigaon,26.45012521994133,90.6734296187684,319,738804,375818,362986,434078,237114,196964,82784,42513,40271,18835,9377,9458,255806,197542,58264,359145,371033,5924,384,236,871,9,58.75,96.59,63.09,54.26
Assam,Cachar,24.815570668693017,92.86849650455927,316,1736617,886284,850333,1174128,639946,534182,264897,136051,128846,17569,8736,8833,608062,469752,138310,1038985,654816,37635,280,341,1673,98,67.61,95.94,72.21,62.82
Assam,Darrang,26.58463215962442,92.04141338028155,325,928500,475273,453227,487039,268666,218373,40260,20566,19694,8419,4300,4119,324843,246864,77979,327322,597392,1688,431,57,724,19,52.45,95.36,56.53,48.18
Assam,Dhemaji,27.586533438485816,94.71336908517353,308,686133,351249,334884,423028,237761,185267,44225,23006,21219,325560,165449,160111,316800,186577,130223,655052,13475,8711,297,911,167,6315,61.65,95.34,67.69,55.32
Assam,Dibrugarh,27.30612284482757,95.0998282327587,310,1326335,676434,649901,884531,491361,393170,58876,30517,28359,102871,51835,51036,560557,368013,192544,1198401,64526,52968,2261,4673,1055,46,66.69,96.08,72.64,60.5
Assam,Goalpara,26.017277777777807,90.59869891598912,302,1008183,513292,494891,563577,304302,259275,45094,22999,22095,231570,116013,115557,362573,267118,95455,347878,579929,77862,771,194,477,103,55.9,96.42,59.28,52.39
Assam,Golaghat,26.377219709794485,93.82583397823468,313,1066888,543161,523727,721764,396475,325289,62298,31807,30491,111765,56420,55345,479928,309104,170824,917426,90312,50582,1131,3863,530,1347,67.65,96.42,72.99,62.11
Assam,Hailakandi,24.457496089385486,92.59154664804475,318,659296,337890,321406,407366,226836,180530,70659,36369,34290,691,354,337,214240,170792,43448,251194,397653,8480,84,490,247,636,61.79,95.12,67.13,56.17
Assam,Jorhat,26.76244824016563,94.30197722567289,312,1092256,556805,535451,794929,432335,362594,88665,45194,43471,139971,70795,69176,498618,320746,177872,1008219,54684,21051,1540,2378,719,578,72.78,96.16,77.65,67.72
Assam,Kamrup,26.170939452054807,91.58863273972592,321,1517542,778461,739081,995319,550219,445100,107827,55237,52590,182038,92094,89944,628954,428492,200462,877495,601784,33297,319,185,1330,55,65.59,94.94,70.68,60.22
Assam,Karbi Anglong,26.08966454598031,93.11536570271832,314,956313,490167,466146,557214,314253,242961,44961,23436,21525,538738,272460,266278,383441,246193,137248,766000,20290,157789,370,6260,397,3568,58.27,95.1,64.11,52.12
Assam,Karimganj,24.69660712250711,92.3679498575498,317,1228686,625864,602822,795297,435942,359355,157890,81384,76506,1940,994,946,399171,319798,79373,521962,692489,11990,114,446,524,110,64.73,96.32,69.65,59.61
Assam,Kokrajhar,26.497246635730868,90.13997470997688,300,887142,452905,434237,489305,275220,214085,29570,15386,14184,278665,139579,139086,341131,236322,104809,529068,252271,101091,93,1718,396,123,55.16,95.88,60.77,49.3
Assam,Lakhimpur,27.14128805970149,94.0775949253732,307,1042137,529674,512463,683486,375552,307934,81840,41689,40151,249426,126716,122710,429995,282250,147745,797130,193476,46217,412,1074,250,2410,65.59,96.75,70.9,60.09
Assam,Nagaon,26.26462170626351,92.9306191144708,305,2823768,1439112,1384656,1710716,921850,788866,266350,136473,129877,115153,57759,57394,979998,766728,213270,1225246,1563203,26844,3036,1073,1162,61,60.58,96.22,64.06,56.97
Assam,Nalbari,26.46323767605632,91.40598521126763,323,771639,396006,375633,531771,293184,238587,60216,30654,29562,23364,11692,11672,267623,210202,57421,491582,277488,429,62,27,1004,9,68.91,94.86,74.04,63.52
Assam,Sonitpur,26.73514926829268,92.85197804878044,306,1924110,983904,940206,1108572,620525,488047,109130,55817,53313,232207,117685,114522,770606,537195,233411,1422824,350536,138166,1363,5088,1003,221,57.61,95.56,63.07,51.91
Assam,Tinsukia,27.53549291139241,95.69055949367085,309,1327929,680231,647698,798322,453449,344873,37688,19443,18245,82066,41769,40297,557196,366623,190573,1181347,48373,76877,1999,16228,837,395,60.12,95.22,66.66,53.25
Bihar,Araria,26.211528119180603,87.30766554934816,209,2811569,1463333,1348236,1195768,727643,468125,382654,198247,184407,38848,19887,18961,1069893,708391,361502,1593525,1207442,4116,371,187,1910,63,42.53,92.13,49.73,34.72
Bihar,Aurangabad,24.774291867469877,84.45986024096379,235,2540073,1318684,1221389,1466002,868733,597269,612064,316161,295903,1033,500,533,837770,599157,238613,2291133,237353,2218,295,334,775,19,57.71,92.62,65.88,48.9
Bihar,Aurangabad,24.774291867469877,84.45986024096379,515,3701282,1924469,1776813,2503837,1430936,1072901,539368,277228,262140,143366,73876,69490,1575079,1015864,559215,2545438,786677,15991,5142,309093,30981,1005,67.65,92.33,74.35,60.38
Bihar,Banka,24.832355642023337,86.8664916342413,225,2034763,1067140,967623,965321,590961,374360,247858,129663,118195,90432,45901,44531,771080,517817,253263,1772655,250925,6138,139,113,94,1035,47.44,90.67,55.38,38.69
Bihar,Begusarai,25.54302613168723,86.12560144032932,222,2970541,1567660,1402881,1548673,918507,630166,432270,227481,204789,1597,848,749,938182,715345,222837,2554330,407348,2209,402,229,276,57,52.13,89.49,58.59,44.92
Bihar,Bhagalpur,25.277192885375477,87.04213814229242,224,3037766,1615663,1422103,1573066,937669,635397,318569,169667,148902,67180,35545,31635,983528,740056,243472,2487866,537098,3556,415,180,1050,32,51.78,88.02,58.04,44.68
Bihar,Bhojpur,25.50666439393939,84.49407803030304,231,2728407,1430380,1298027,1599151,973486,625665,425402,222716,202686,13977,7363,6614,822493,640283,182210,2518216,197819,2165,544,647,1472,48,58.61,90.75,68.06,48.2
Bihar,Buxar,25.48593018867924,84.08808081760995,232,1706352,887977,818375,989807,593544,396263,251737,131821,119916,26824,14102,12722,538322,402180,136142,1591454,105423,2125,248,5090,97,57,58.01,92.16,66.84,48.42
Bihar,Darbhanga,26.146187719298258,85.97387352472099,215,3937385,2059949,1877436,1816634,1125566,691068,615688,322327,293361,2772,1361,1411,1223640,947927,275713,3042729,881476,3534,832,245,236,101,46.14,91.14,54.64,36.81
Bihar,Gaya,24.7266541547278,84.94291217765044,236,4391418,2266566,2124852,2297613,1368803,928810,1334351,683943,650408,3098,1635,1463,1664062,1076170,587892,3876395,488121,3943,913,870,1723,108,52.32,93.75,60.39,43.71
Bihar,Gopalganj,26.44874364161851,84.34636127167629,217,2562012,1267666,1294346,1382998,793905,589093,320064,159265,160799,60807,29833,30974,728201,539586,188615,2119262,436057,2463,271,167,133,28,53.98,102.1,62.63,45.51
Bihar,Jamui,24.78418380462726,86.26316298200514,238,1760405,916064,844341,858588,534385,324203,302649,155849,146800,78793,40185,38608,727571,452288,275283,1525746,217621,8443,162,159,87,3438,48.77,92.17,58.33,38.4
Bihar,Jehanabad,25.155679045643165,84.9208124481328,239,1125313,585582,539731,618881,374412,244469,222974,115034,107940,1285,667,618,365378,266423,98955,1045117,75742,691,148,248,60,58,55.0,92.17,63.94,45.29
Bihar,Katihar,25.56565356037151,87.70466083591326,212,3071029,1600430,1470599,1280190,762256,517934,263100,136429,126671,179971,92190,87781,1013566,760522,253044,1684589,1365645,8659,2754,212,507,2141,41.69,91.89,47.63,35.22
Bihar,Khagaria,25.53558891454964,86.56593256351037,223,1666886,883786,783100,768028,461153,306875,247161,130191,116970,675,352,323,560805,398216,162589,1486989,175588,1253,143,79,86,115,46.08,88.61,52.18,39.19
Bihar,Kishanganj,26.324336758321294,87.95045007235886,210,1690400,866970,823430,745056,439921,305135,113118,57964,55154,64224,32506,31718,529064,421192,107872,531236,1149095,5783,398,183,1476,28,44.08,94.98,50.74,37.06
Bihar,Lakhisarai,25.183449321266963,86.12825701357468,227,1000912,526345,474567,507270,305182,202088,153209,80069,73140,8333,4247,4086,326576,240494,86082,956396,40886,487,140,52,78,52,50.68,90.16,57.98,42.58
Bihar,Madhepura,25.77341929460581,86.8978443983403,213,2001762,1047559,954203,834577,517666,316911,346275,179337,166938,12532,6442,6090,777546,496046,281500,1753829,241760,1342,170,60,133,81,41.69,91.09,49.42,33.21
Bihar,Madhubani,26.41380538172716,86.16328360450552,207,4487379,2329313,2158066,2155338,1340085,815253,587158,303389,283769,3990,2056,1934,1636938,1105947,530991,3652168,818912,3262,564,328,442,169,48.03,92.65,57.53,37.78
Bihar,Munger,25.198537962962963,86.54173672839504,226,1367765,729041,638724,801817,473741,328076,183846,97195,86651,21404,10995,10409,426658,327453,99205,1252319,110416,1815,338,95,145,61,58.62,87.61,64.98,51.36
Bihar,Muzaffarpur,26.18664417177915,85.32745092024543,216,4801062,2527497,2273565,2509232,1487117,1022115,751975,393135,358840,5979,3124,2855,1547586,1195308,352278,4032773,745546,5149,933,288,382,98,52.26,89.95,58.84,44.96
Bihar,Nalanda,25.229345508982053,85.48053113772461,229,2877653,1497060,1380593,1519933,919558,600375,607672,315240,292432,1442,728,714,1045420,703405,342015,2669775,198033,1978,393,414,561,64,52.82,92.22,61.42,43.49
Bihar,Nawada,24.825708836206903,85.61594568965519,237,2219146,1144668,1074478,1091012,659474,431538,565112,290050,275062,2045,997,1048,817041,539439,277602,1964620,244394,1299,250,176,279,80,49.16,93.87,57.61,40.16
Bihar,Pashchim Champaran,27.16064352201258,84.30265911949685,203,3935042,2061110,1873932,1759481,1091226,668255,553944,289191,264753,250046,127680,122366,1478947,999282,479665,3047427,865090,8469,926,1337,296,1895,44.71,90.92,52.94,35.66
Bihar,Patna,25.40297114503818,85.3198433587787,230,5838465,3078512,2759953,3459679,2028047,1431632,920918,482088,438830,9069,4717,4352,1881886,1436411,445475,5356075,439952,12551,4803,1062,2151,203,59.26,89.65,65.88,51.87
Bihar,Purba Champaran,26.68129336734693,85.00382155612242,204,5099371,2681209,2418162,2276957,1407603,869354,649726,340363,309363,12461,6454,6007,1737539,1260774,476765,4086453,990349,4865,668,878,464,104,44.65,90.19,52.5,35.95
Bihar,Purnia,25.81714801901739,87.40447606973065,211,3264619,1699370,1565249,1332326,805261,527065,390991,203201,187790,139490,71391,68099,1143318,803275,340043,1989420,1255641,7989,614,353,1450,650,40.81,92.11,47.39,33.67
Bihar,Rohtas,24.99170460829495,83.9350762672811,234,2959918,1543546,1416372,1799832,1061783,738049,549546,286596,262950,31650,16399,15251,924879,707939,216940,2645415,300487,2889,2569,1584,252,537,60.81,91.76,68.79,52.11
Bihar,Saharsa,25.821270696721303,86.54670819672135,214,1900661,997174,903487,804996,506374,298622,317249,164518,152731,6009,3101,2908,649898,456724,193174,1629254,266620,1292,197,60,109,8,42.35,90.6,50.78,33.05
Bihar,Samastipur,25.793205563909765,85.94833323308269,221,4261566,2230003,2031563,2142880,1293575,849305,803128,417944,385184,1884,975,909,1343400,1037576,305824,3800598,452370,2126,554,292,231,112,50.28,91.1,58.01,41.81
Bihar,Saran,25.89656077844312,84.82266287425155,219,3951862,2022821,1929041,2157454,1285767,871687,474066,242976,231090,36786,18322,18464,1040231,857660,182571,3534772,406449,2330,371,229,322,107,54.59,95.36,63.56,45.19
Bihar,Sheikhpura,25.12472436548223,85.77839390862943,228,636342,329743,306599,328676,196431,132245,131115,67582,63533,617,305,312,224655,151569,73086,596102,37653,313,75,41,43,31,51.65,92.98,59.57,43.13
Bihar,Sheohar,26.458380748663107,85.29539411764709,205,656246,346673,309573,283698,171645,112053,96655,51089,45566,318,177,141,216372,166693,49679,552492,99342,522,216,73,52,44,43.23,89.3,49.51,36.2
Bihar,Sitamarhi,26.56570069686413,85.61172491289203,206,3423574,1803252,1620322,1436794,885188,551606,405714,213624,192090,2989,1585,1404,1114583,865929,248654,2672311,740101,2897,261,253,188,20,41.97,89.86,49.09,34.04
Bihar,Siwan,26.1736372013652,84.33766552901022,218,3330464,1675090,1655374,1930175,1115906,814269,386685,195965,190720,87000,43472,43528,932416,730396,202020,2712635,608282,2618,369,407,359,86,57.96,98.82,66.62,49.19
Bihar,Supaul,26.28157893772896,86.78496465201461,208,2229076,1155283,1073793,1033283,647672,385611,354249,182545,171704,10168,5242,4926,877682,551718,325964,1809936,409251,3758,271,136,546,42,46.35,92.95,56.06,35.91
Bihar,Vaishali,25.8134703180212,85.39247597173153,220,3495021,1844535,1650486,1926740,1152576,774164,738031,387827,350204,2274,1232,1042,1060344,858648,201696,3152346,333980,2203,707,362,246,71,55.13,89.48,62.49,46.91
Chandigarh,Chandigarh,30.7426,76.75872465753424,55,1055450,580663,474787,805438,465346,340092,199086,106356,92730,0,0,0,404136,328159,75977,852574,51447,8720,138329,1160,1960,246,76.31,81.77,80.14,71.63
Chhattisgarh,Bastar,19.393866751269048,81.52895126903546,414,1413199,698487,714712,650863,382335,268528,37963,18815,19148,931780,456841,474939,726531,404364,322167,1277975,12413,27951,2099,985,3466,86925,46.06,102.32,54.74,37.57
Chhattisgarh,Bilaspur,22.356942982456143,81.99770350877188,30,381956,192764,189192,287620,155599,132021,98989,50271,48718,10693,5485,5208,205871,111543,94328,371973,6984,236,2387,113,10,7,75.3,98.15,80.72,69.78
Chhattisgarh,Bilaspur,22.356942982456143,81.99770350877188,406,2663629,1351574,1312055,1596560,932474,664086,552992,281221,271771,498469,248172,250297,1203197,715467,487730,2540763,57973,20745,6373,2979,2357,29122,59.94,97.08,68.99,50.61
Chhattisgarh,Dhamtari,20.554912627291245,81.7569195519348,412,799781,397897,401884,546833,303924,242909,58581,28887,29694,207633,102058,105575,402895,226382,176513,777188,10425,2644,1196,667,3612,3685,68.37,101.0,76.38,60.44
Chhattisgarh,Durg,21.194463849287164,81.33181639511197,409,3343872,1682101,1661771,2303378,1284612,1018766,458040,229067,228973,397416,196008,201408,1496805,921729,575076,3129745,83499,24304,24276,19587,17209,42569,68.88,98.79,76.37,61.31
Chhattisgarh,Jashpur,22.77286167664669,83.8703962075848,402,851669,424747,426922,495415,280656,214759,48844,24317,24527,530378,262731,267647,487360,263645,223715,629509,15336,189588,474,467,694,14835,58.17,100.51,66.08,50.3
Chhattisgarh,Korba,22.491712499999995,82.57604326923074,404,1206640,612915,593725,748759,433391,315368,124679,63446,61233,493559,246323,247236,521186,333329,187857,1133176,30195,21059,3666,897,753,15649,62.05,96.87,70.71,53.12
Chhattisgarh,Koriya,23.50412776859501,82.12515636363635,400,658917,334737,324180,397823,229923,167900,54776,27682,27094,304280,152659,151621,307071,185483,121588,604259,25878,9398,1391,84,1155,15474,60.38,96.85,68.69,51.79
Chhattisgarh,Mahasamund,21.223727037773354,82.65925427435384,411,1032754,511967,520787,637963,364089,273874,139581,68968,70613,279896,137339,142557,499260,291858,207402,1008061,12570,5284,2941,521,1495,1417,61.77,101.72,71.12,52.59
Chhattisgarh,Raigarh,22.008265068493166,83.27797698630134,403,1493984,750278,743706,951639,542756,408883,224942,112111,112831,505609,250473,255136,690167,429211,260956,1422986,17332,47653,2117,781,409,1782,63.7,99.12,72.34,54.98
Chhattisgarh,Raigarh,22.008265068493166,83.27797698630134,520,2634200,1344345,1289855,1939994,1059692,880302,134952,67980,66972,305125,153657,151468,1072969,753843,319126,2239370,227465,17452,7477,121791,12260,1159,73.65,95.95,78.83,68.25
Chhattisgarh,Raipur,20.88603153846152,82.20032759615388,410,4063872,2048186,2015686,2629749,1493158,1136591,724250,362284,361966,476446,235271,241175,1757664,1099964,657700,3881485,103038,23181,16707,8397,17137,10680,64.71,98.41,72.9,56.39
Chhattisgarh,Surguja,23.32719278728607,83.23582493887531,401,2359886,1193129,1166757,1187941,694686,493255,115652,58281,57371,1300628,652799,647829,1155807,649888,505919,2126195,81442,97432,2303,1287,623,48295,50.34,97.79,58.22,42.28
Daman and Diu,Daman,20.431616666666677,72.8392366071429,495,191173,124659,66514,150348,104316,46032,4262,2224,2038,15240,7702,7538,105521,94502,11019,171537,16087,2618,169,216,244,79,78.64,53.36,83.68,69.21
Daman and Diu,Junagadh,20.72568199498111,70.83985639899612,479,2743082,1404356,1338726,1842818,1046981,795837,265793,136319,129474,55571,28463,27108,1123709,801859,321850,2397056,334858,2586,1110,1291,3841,77,67.18,95.33,74.55,59.45
Goa,North Goa,15.548723418714054,73.80667997909038,585,818008,416677,401331,663060,351738,311322,17606,8712,8894,56606,27824,28782,327658,239125,88533,622213,57941,134169,618,553,546,166,81.06,96.32,84.42,77.57
Goa,South Goa,15.195278658183785,73.941792596877,586,640537,322463,318074,502427,264085,238342,7843,3915,3928,92669,45124,47545,249590,180411,69179,341664,63623,231961,855,542,563,92,78.44,98.64,81.9,74.93
Gujarat,Ahmadabad,22.605425564971743,72.23898135593227,474,7214225,3788051,3426174,5435760,3025463,2410297,759483,399075,360408,89138,47106,42032,2594952,2127547,467405,6042416,883238,50754,14542,4518,209287,2055,75.35,90.45,79.87,70.35
Gujarat,Amreli,21.04832649310872,71.43457637825426,480,1514190,771049,743141,995459,558180,437279,132915,68518,64397,7322,3856,3466,657139,453642,203497,1410463,99105,919,415,243,2053,40,65.74,96.38,72.39,58.84
Gujarat,Anand,22.282718206229863,72.57782051557454,482,2092745,1087224,1005521,1551253,874481,676772,104465,54476,49989,24824,12761,12063,844794,627561,217233,1798794,250919,29789,1524,267,8591,142,74.13,92.49,80.43,67.31
Gujarat,Banas Kantha,24.258538965517253,71.93205252873561,469,3120506,1610379,1510127,1704923,1048402,656521,327460,169288,158172,284155,144355,139800,1248600,836268,412332,2890305,213505,1686,486,281,12659,83,54.64,93.77,65.1,43.47
Gujarat,Bharuch,21.75787276237761,72.67326346710801,488,1551019,805707,745312,1118276,623047,495229,62235,31979,30256,488194,250398,237796,627124,468919,158205,1188204,343511,9494,1733,442,4813,342,72.1,92.5,77.33,66.45
Gujarat,Bhavnagar,21.70219390341736,72.16272632761141,481,2880365,1490201,1390164,1887255,1087371,799884,157034,80827,76207,9110,4751,4359,1150632,838781,311851,2632574,212863,3457,1410,445,26974,127,65.52,93.29,72.97,57.54
Gujarat,Gandhinagar,23.193679790026252,72.67221679790026,473,1391753,723864,667889,1030494,582686,447808,108608,56919,51689,18204,9711,8493,534976,408075,126901,1319586,57273,3237,1985,497,6405,82,74.04,92.27,80.5,67.05
Gujarat,Jamnagar,22.410600414263328,69.62062005768233,477,2160119,1114192,1045927,1396534,795140,601394,173895,89597,84298,24187,12415,11772,847440,646822,200618,1810443,320805,4392,1873,1086,18856,136,64.65,93.87,71.36,57.5
Gujarat,Junagadh,20.929523011609785,70.54733890140345,479,2743082,1404356,1338726,1842818,1046981,795837,265793,136319,129474,55571,28463,27108,1123709,801859,321850,2397056,334858,2586,1110,1291,3841,77,67.18,95.33,74.55,59.45
Gujarat,Kachchh,23.48057203301311,68.82192301497916,468,2092371,1096737,995634,1252319,739239,513080,258859,133224,125635,24228,12825,11403,776228,624704,151524,1608921,442355,6192,6353,490,25312,98,59.85,90.78,67.4,51.53
Gujarat,Kheda,22.88765312500002,73.018803515625,483,2299885,1185727,1114158,1660243,942480,717763,115631,59734,55897,40336,21057,19279,933983,674586,259397,2000884,264482,26629,1403,300,3479,82,72.19,93.96,79.49,64.42
Gujarat,Mahesana,23.529355452865065,72.45545194085031,471,2035064,1056520,978544,1502645,847499,655146,162288,84470,77818,9392,4879,4513,812064,588699,223365,1885732,136431,1954,1082,146,7087,88,73.84,92.62,80.22,66.95
Gujarat,Narmada,21.70666386292833,73.68403208722742,487,590297,301086,289211,370336,211767,158569,8733,4465,4268,481392,244524,236868,294795,174282,120513,559848,22600,4413,147,80,373,2078,62.74,96.06,70.33,54.83
Gujarat,Navsari,20.866973318871995,72.86184869848157,490,1329672,678165,651507,1001909,539471,462438,35464,17959,17505,639659,319740,319919,591834,407881,183953,1225087,78669,5733,2459,601,13386,2823,75.35,96.07,79.55,70.98
Gujarat,Panch Mahals,22.80435606837605,73.61984598290586,484,2390776,1226961,1163815,1440805,858054,582751,100446,51278,49168,721604,368348,353256,1097507,673565,423942,2220974,158513,2863,662,337,5236,131,60.27,94.85,69.93,50.07
Gujarat,Patan,23.80634198473284,71.75162977099237,470,1343734,694397,649337,837913,494631,343282,123408,64190,59218,13303,6835,6468,554830,383074,171756,1194745,142797,916,337,66,3602,66,62.36,93.51,71.23,52.87
Gujarat,Porbandar,21.55092351651571,69.71896987722886,478,585449,300209,285240,393678,221621,172057,51830,26607,25223,13039,6730,6309,231169,174118,57051,549749,33565,500,248,91,515,38,67.24,95.01,73.82,60.32
Gujarat,Rajkot,22.40603377715488,70.83679439383323,476,3804558,1974445,1830113,2725056,1514075,1210981,290169,149782,140387,24017,12504,11513,1479050,1159480,319570,3397406,361388,5478,1918,1170,33591,269,71.63,92.69,76.68,66.17
Gujarat,Sabar Kantha,23.71803594548552,73.13638790459964,472,2428589,1244231,1184358,1578734,918625,660109,187685,96527,91158,542156,272531,269625,1084878,681435,403443,2260560,148563,6375,614,168,11110,52,65.01,95.19,73.83,55.74
Gujarat,Surat,21.25761372772093,72.93488716344339,492,6081322,3402224,2679098,4571410,2687468,1883942,158115,82202,75913,856952,432089,424863,2553542,2142819,410723,5260193,660772,21052,5703,12902,112835,3920,75.17,78.75,78.99,70.32
Gujarat,Surendranagar,22.82672007299272,71.48358740875906,475,1756268,909917,846351,1093626,643221,450405,179461,93427,86034,21453,11068,10385,723500,504038,219462,1620282,109681,1419,512,312,22992,128,62.27,93.01,70.69,53.22
Gujarat,The Dangs,20.801633877551023,73.6883518367347,489,228291,113821,114470,140968,77314,63654,992,490,502,216073,107539,108534,118257,61329,56928,203545,3593,20029,69,32,39,560,61.75,100.57,67.93,55.61
Gujarat,Vadodara,22.26133739279589,73.49433010291594,486,4165626,2153736,2011890,2893080,1614087,1278993,221629,114602,107027,1149901,586665,563236,1693473,1233312,460161,3713941,384579,23813,9340,2069,27650,1124,69.45,93.41,74.94,63.57
Gujarat,Valsad,20.44238231644259,72.9148584798345,491,1705678,887222,818456,1170657,655528,515129,38237,19557,18680,902794,450976,451818,743245,516188,227057,1571147,94034,19661,1589,913,13809,1417,68.63,92.25,73.89,62.94
Haryana,Ambala,30.3503672316384,76.94970310734456,70,1128350,598703,529647,818025,461288,356737,296246,156874,139372,0,0,0,372139,320120,52019,955096,22143,3705,138202,381,4845,110,72.5,88.47,77.05,67.35
Haryana,Bhiwani,28.728868064516128,76.02110225806452,81,1634445,866672,767773,1069871,643158,426713,341162,181475,159687,0,0,0,623006,430678,192328,1611031,15515,873,2401,254,1016,26,65.46,88.59,74.21,55.58
Haryana,Faridabad,28.14873109756098,77.32718536585368,88,1809733,966110,843623,1272739,734940,537799,223799,119495,104304,0,0,0,579229,476933,102296,1588407,161680,9743,34572,640,4883,249,70.33,87.32,76.07,63.75
Haryana,Fatehabad,29.57298318584072,75.54608716814157,78,942011,495360,446651,557578,327471,230107,284357,149111,135246,0,0,0,369083,263498,105585,779243,8360,996,150969,171,1172,530,59.19,90.17,66.11,51.52
Haryana,Gurgaon,28.043894789579163,77.01935130260523,86,1514432,816690,697742,1111116,638666,472450,197937,104332,93605,0,0,0,544716,432456,112260,1408801,70842,9725,15097,944,7451,254,73.37,85.44,78.2,67.71
Haryana,Hisar,29.23628731117825,75.84324682779452,80,1743931,931562,812369,1114311,670200,444111,408785,217338,191447,0,0,0,691621,488321,203300,1701061,21650,1945,12270,334,3620,33,63.9,87.21,71.94,54.67
Haryana,Jhajjar,28.59651868131869,76.61137142857145,83,958405,514667,443738,676091,399480,276611,170448,90856,79592,0,0,0,326534,250020,76514,945693,8247,734,1042,105,645,22,70.54,86.22,77.62,62.34
Haryana,Jind,29.45149821958457,76.29598575667653,77,1334152,713006,621146,832758,502049,330709,282351,150940,131411,0,0,0,523422,368277,155145,1276669,23016,889,29103,172,2594,56,62.42,87.12,70.41,53.24
Haryana,Kaithal,29.96068539094649,76.37698930041155,73,1074304,571003,503301,646529,385782,260747,247513,131486,116027,0,0,0,373899,292696,81203,974520,8232,1769,87558,265,351,70,60.18,88.14,67.56,51.81
Haryana,Karnal,29.703200647249204,76.87488025889972,74,1505324,797712,707612,978013,564516,413497,339604,179681,159923,0,0,0,516062,411646,104416,1341002,31650,2049,126207,532,1516,49,64.97,88.71,70.77,58.44
Haryana,Kurukshetra,30.05652659846548,76.78774680306903,72,964655,510976,453679,646893,370828,276065,215128,113311,101817,0,0,0,336780,268556,68224,805175,15970,1943,140395,214,375,106,67.06,88.79,72.57,60.85
Haryana,Mahendragarh,28.1352161458333,76.14018072916659,84,922088,486665,435423,630255,380440,249815,156314,82420,73894,0,0,0,338584,232935,105649,913251,5660,301,1737,75,644,15,68.35,89.47,78.17,57.37
Haryana,Panchkula,30.700897142857134,76.97173238095236,69,561293,299679,261614,405318,229862,175456,101830,53868,47962,0,0,0,211479,164865,46614,490702,23451,2583,40951,1008,1626,90,72.21,87.3,76.7,67.07
Haryana,Panipat,29.34352134146342,76.92895914634147,75,1205437,646857,558580,786599,464136,322463,206213,109695,96518,0,0,0,412318,328667,83651,1083936,86622,2261,25064,289,4647,99,65.25,86.35,71.75,57.73
Haryana,Rewari,28.19164714828897,76.55956007604564,85,900332,474335,425997,636947,375453,261494,182606,95571,87035,0,0,0,337727,235326,102401,889133,5713,701,1804,202,1525,12,70.75,89.81,79.15,61.38
Haryana,Rohtak,28.892517647058817,76.53123235294117,82,1061204,568479,492725,747582,436025,311557,216889,115573,101316,0,0,0,345967,272646,73321,1043887,8185,732,3916,200,3491,24,70.45,86.67,76.7,63.23
Haryana,Sirsa,29.63583446327684,74.90970480225988,79,1295189,682582,612607,782897,456968,325929,387381,202430,184951,0,0,0,502003,369462,132541,940255,9524,2186,338962,370,2256,624,60.45,89.75,66.95,53.2
Himachal Pradesh,Bilaspur,31.3780422907489,76.65316079295157,30,381956,192764,189192,287620,155599,132021,98989,50271,48718,10693,5485,5208,205871,111543,94328,371973,6984,236,2387,113,10,7,75.3,98.15,80.72,69.78
Himachal Pradesh,Bilaspur,31.3780422907489,76.65316079295157,406,2663629,1351574,1312055,1596560,932474,664086,552992,281221,271771,498469,248172,250297,1203197,715467,487730,2540763,57973,20745,6373,2979,2357,29122,59.94,97.08,68.99,50.61
Himachal Pradesh,Chamba,32.66741814595661,76.39354063116366,23,519080,261320,257760,323842,186064,137778,111690,56154,55536,135500,67900,67600,294035,158791,135244,479782,32455,1559,2745,1740,57,14,62.39,98.64,71.2,53.45
Himachal Pradesh,Hamirpur,31.67668481012659,76.49767088607594,28,454768,217070,237698,358091,180555,177536,109256,53727,55529,3044,1531,1513,241931,118724,123207,449412,3711,243,591,95,293,9,78.74,109.5,83.18,74.69
Himachal Pradesh,Hamirpur,31.67668481012659,76.49767088607594,168,1104285,593537,510748,653299,408125,245174,241198,130269,110929,474,259,215,443655,308527,135128,1010014,91269,814,196,74,41,273,59.16,86.05,68.76,48.0
Himachal Pradesh,Kangra,32.14093603238864,76.41205910931173,24,1510075,750591,759484,1152640,606443,546197,319385,159697,159688,84564,41745,42819,675170,403756,271414,1461140,19797,3023,8929,14511,194,208,76.33,101.18,80.8,71.92
Himachal Pradesh,Kinnaur,31.60667184065933,78.51613736263741,34,84121,46249,37872,60699,36697,24002,14750,7433,7317,48746,23609,25137,56273,33863,22410,64732,448,485,249,18086,29,45,72.16,81.89,79.35,63.38
Himachal Pradesh,Kullu,31.90911922077925,77.40922649350647,26,437903,225452,212451,307672,174550,133122,122659,62686,59973,16822,8493,8329,269084,148829,120255,415669,2974,1568,1396,15377,94,83,70.26,94.23,77.42,62.66
Himachal Pradesh,Mandi,31.635805940594054,76.96556930693067,27,999777,498065,501712,723747,393669,330078,293739,147250,146489,12787,6345,6442,572671,297464,275207,981412,9460,876,4081,2628,43,86,72.39,100.73,79.04,65.79
Himachal Pradesh,Shimla,31.155725451807253,77.62573042168668,33,814010,425039,388971,612642,342846,269796,215777,110828,104949,8755,4554,4201,430926,258628,172298,791449,11810,2025,4047,3262,185,197,75.26,91.51,80.66,69.36
Himachal Pradesh,Sirmaur,30.682764453961443,77.43184689507493,32,529855,276289,253566,362645,205617,157028,160745,83017,77728,11262,5912,5350,280083,169399,110684,476830,33215,577,15501,2645,236,86,68.44,91.78,74.42,61.93
Himachal Pradesh,Solan,31.03864311926604,76.94442140672783,31,580320,308754,271566,428578,244372,184206,164536,85482,79054,25645,13351,12294,298737,190001,108736,548579,14678,1452,13926,574,591,110,73.85,87.96,79.15,67.83
Himachal Pradesh,Una,31.58330388349513,76.18353932038836,29,521173,263692,257481,399715,213281,186434,115491,58601,56890,8601,4445,4156,215346,141612,73734,480138,14275,390,26009,56,70,10,76.7,97.64,80.88,72.41
Jammu and Kashmir,Doda,33.359614675767915,76.07163720136518,16,409936,213641,196295,219083,138620,80463,53408,27209,26199,39216,20377,18839,151912,101144,50768,187621,220614,472,422,21,22,42,53.44,91.88,64.88,40.99
Jammu and Kashmir,Jammu,32.713199095022645,74.8477520361991,21,1529958,813821,716137,1137135,641916,495219,377991,197610,180381,69193,36323,32870,508622,417456,91166,1289240,107489,12104,114272,470,1987,321,74.32,88.0,78.88,69.15
Jammu and Kashmir,Kargil,33.565994894894914,76.63675315315312,4,140802,77785,63017,86236,56301,29935,18,12,6,122336,62652,59684,51873,39839,12034,10341,108239,604,1171,20126,28,4,61.25,81.01,72.38,47.5
Jammu and Kashmir,Kathua,32.51781678321678,75.58901398601404,7,616435,326109,290326,389204,228499,160705,141224,74644,66580,53307,27693,25614,200431,161548,38883,540063,64234,1828,9551,24,16,2,63.14,89.03,70.07,55.35
Jammu and Kashmir,Pulwama,33.88414418604652,75.00921860465118,12,560440,293064,267376,293958,178326,115632,402,397,5,22607,11837,10770,188420,138428,49992,13840,535159,1109,9440,35,6,18,52.45,91.23,60.85,43.25
Jammu and Kashmir,Punch,33.791241290322574,74.29593161290322,5,476835,251899,224936,261724,163333,98391,556,406,150,176101,90274,85827,161393,117677,43716,32604,431279,958,11188,83,10,2,54.89,89.3,64.84,43.74
Jammu and Kashmir,Srinagar,34.27312898550724,75.11021159420288,10,1236829,651124,585705,748584,431746,316838,1068,995,73,8935,5021,3914,407188,333151,74037,42540,1177342,2746,12187,285,74,2,60.52,89.95,66.31,54.1
Jammu and Kashmir,Udhampur,33.04770670731707,75.15286951219511,19,554985,296784,258201,322354,197543,124811,138569,72093,66476,56309,29142,27167,243672,163845,79827,489044,59771,1962,3418,106,57,235,58.08,87.0,66.56,48.34
Jharkhand,Bokaro,23.6814965034965,85.98398374125864,355,2062330,1072807,989523,1273520,759088,514432,299227,154297,144930,255626,129233,126393,685368,507677,177691,1636460,241451,13730,4174,1890,2045,160524,61.75,92.24,70.76,51.99
Jharkhand,Chatra,24.11619945750453,84.93295804701627,347,1042886,533935,508951,510061,303902,206159,340553,172668,167885,45563,23141,22422,397690,251213,146477,903179,116710,6565,888,35,129,12936,48.91,95.32,56.92,40.51
Jharkhand,Deoghar,24.33070100755672,86.75697632241814,350,1492073,775022,717051,793538,489837,303701,190036,98295,91741,180962,91012,89950,551467,383691,167776,1165140,302626,6027,143,188,282,16067,53.18,92.52,63.2,42.35
Jharkhand,Dhanbad,23.854509090909097,86.40372924901185,354,2684487,1405956,1278531,1722204,1014950,707254,437309,226362,210947,233119,117256,115863,844504,658851,185653,2149480,431762,11243,9727,331,1268,77182,64.15,90.94,72.19,55.32
Jharkhand,Dumka,24.275006125574265,87.27662450229711,362,1321442,668514,652928,672409,406275,266134,79614,40802,38812,571077,282125,288952,624779,367108,257671,1044726,106865,86404,234,267,162,78622,50.88,97.67,60.77,40.76
Jharkhand,Garhwa,24.082114689265527,83.68664265536722,346,1322784,683575,639209,653476,405161,248315,319946,165313,154633,205874,104499,101375,571431,335451,235980,1104475,194680,17168,123,371,20,4591,49.4,93.51,59.27,38.85
Jharkhand,Giridih,24.30578509874329,86.08710915619386,349,2445474,1258098,1187376,1253475,783736,469739,325493,166447,159046,238188,120646,117542,1036277,623946,412331,1856202,508586,14645,937,650,1503,59218,51.26,94.38,62.3,39.56
Jharkhand,Godda,24.8189,87.2941735483871,351,1313551,677927,635624,604519,376212,228307,115567,59835,55732,279208,138510,140698,552191,344019,208172,937126,289182,37795,97,128,115,47067,46.02,93.76,55.49,35.92
Jharkhand,Gumla,23.078532948929148,84.55056787479396,366,1025213,514390,510823,559720,321795,237925,32459,16446,16013,706754,352514,354240,487508,264774,222734,309563,51429,202449,221,531,23,457468,54.6,99.31,62.56,46.58
Jharkhand,Jamtara,23.97873318077801,86.95325080091534,363,791042,404830,386212,426312,258260,168052,72885,37212,35673,240489,120035,120454,326631,214740,111891,550560,164406,4419,520,118,783,68564,53.89,95.4,63.79,43.51
Jharkhand,Latehar,23.72511185840708,84.48298743362837,359,726978,369666,357312,350682,209706,140976,154910,78266,76644,331096,166427,164669,313379,180106,133273,473049,69808,47653,120,128,16,133525,48.24,96.66,56.73,39.45
Jharkhand,Lohardaga,23.488796043165483,84.6605169064748,356,461790,232629,229161,259707,149568,110139,15330,7862,7468,262734,130814,131920,221332,121605,99727,112378,95012,16770,51,33,15,235987,56.24,98.51,64.29,48.06
Jharkhand,Pakur,24.57260428082189,87.69691969178076,353,900422,452661,447761,352881,206989,145892,28469,14352,14117,379054,186967,192087,404584,234012,170572,410127,322963,75865,356,283,222,88760,39.19,98.92,45.73,32.58
Jharkhand,Palamu,24.196925968109337,84.20310842824594,358,1939869,1006302,933567,1024563,621706,402857,536382,277119,259263,181208,92577,88631,713175,473042,240133,1683169,238295,6164,734,188,284,5681,52.82,92.77,61.78,43.15
Jharkhand,Ranchi,23.184235061391547,85.31781937244203,364,2914253,1494937,1419316,1911433,1085244,826189,152943,78613,74330,1042016,520582,521434,1142867,743967,398900,1612239,410759,193974,4826,932,2733,677445,65.59,94.94,72.59,58.21
Jharkhand,Sahibganj,24.93667989690721,87.68264097938142,352,1150567,589391,561176,483263,287303,195960,72341,37317,35024,308343,153435,154908,490202,295690,194512,628044,398243,83208,198,245,125,38426,42.0,95.21,48.75,34.92
Jharkhand,Simdega,22.608760391198054,84.59193691931536,367,599578,300309,299269,343483,191991,151492,44674,22150,22524,424407,211546,212861,288645,159867,128778,201524,15103,306601,51,753,114,73930,57.29,99.65,63.93,50.62
Karnataka,Bagalkot,16.15860676328503,75.64526070853468,556,1889752,950111,939641,1113412,641388,472024,319149,158135,161014,97203,48470,48733,818081,511575,306506,1634229,219991,3433,443,412,25198,166,58.92,98.9,67.51,50.23
Karnataka,Bangalore Rural,12.936827087794448,77.47369314775169,583,990923,509172,481751,688749,385311,303438,213700,107424,106276,52903,27147,25756,459891,315499,144392,890429,92252,5368,389,272,1045,85,69.51,94.61,75.67,62.99
Karnataka,Belgaum,16.16107219152853,74.72329042357275,555,4779661,2423063,2356598,3052032,1725548,1326484,577418,289096,288322,297198,148673,148525,2105668,1372422,733246,4038331,528412,18418,2037,1086,178310,149,63.85,97.26,71.21,56.29
Karnataka,Bellary,15.074377548209377,76.47228471074374,565,2452595,1236954,1215641,1421621,813440,608181,517409,258582,258827,451406,225451,225955,1116880,703258,413622,2103633,320834,14014,1029,284,8044,54,57.96,98.28,65.76,50.03
Karnataka,Bidar,17.950361730769224,77.19459961538459,558,1703300,870665,832635,1042673,597198,445475,399785,204280,195505,235822,119787,116035,702608,459050,243558,1289709,335184,35438,1145,30453,680,521,61.21,95.63,68.59,53.5
Karnataka,Bijapur,16.84015316666667,75.95909166666665,417,255230,128663,126567,86919,54076,32843,10122,5145,4977,204189,101519,102670,134525,71591,62934,245151,1617,2709,68,1649,15,3793,34.06,98.37,42.03,25.95
Karnataka,Bijapur,16.84015316666667,75.95909166666665,557,2177331,1111022,1066309,1248268,730566,517702,442773,226440,216333,39314,19912,19402,927722,580111,347611,1786830,369588,2433,558,374,8665,499,57.33,95.98,65.76,48.55
Karnataka,Chikmagalur,13.425288289676422,75.67626502311249,570,1137961,566622,571339,818345,438257,380088,253651,125016,128635,44970,21990,22980,565774,357889,207885,1004553,101235,26000,182,109,4710,4,71.91,100.83,77.35,66.53
Karnataka,Chitradurga,14.29102220394736,76.57821957236843,566,1659456,840843,818613,1087392,607188,480204,389117,196819,192298,302554,152939,149615,856587,513311,343276,1520553,128751,3175,322,84,3778,128,65.53,97.36,72.21,58.66
Karnataka,Davanagere,14.330414586709884,75.91723841166937,567,1945497,986400,959097,1308540,720637,587903,392595,198299,194296,233112,117808,115304,875207,585639,289568,1658465,265805,5420,307,164,6417,1743,67.26,97.23,73.06,61.3
Karnataka,Dharwad,15.343831376975173,75.13831264108359,562,1847023,937206,909817,1301664,711776,589888,177855,89137,88718,87548,44173,43375,784833,543776,241057,1390020,386834,28747,1486,715,29037,2748,70.47,97.08,75.95,64.84
Karnataka,Gadag,15.507128256880746,75.64861302752298,561,1064570,537147,527423,700177,397178,302999,174196,87745,86451,61654,30975,30679,495722,310412,185310,907750,143665,3432,231,79,5993,74,65.77,98.19,73.94,57.45
Karnataka,Gulbarga,17.070459515951594,76.87503850385033,579,2566326,1301755,1264571,1427368,828359,599009,648782,330091,318691,65259,32830,32429,1087028,680001,407027,2011014,513125,8344,826,9589,4865,330,55.62,97.14,63.63,47.37
Karnataka,Hassan,12.945098749999998,76.11049549999997,574,1776421,883667,892754,1225256,668836,556420,345031,169961,175070,32329,15986,16343,903580,560452,343128,1630814,120011,15611,289,623,5820,3,68.97,101.03,75.69,62.33
Karnataka,Haveri,14.737582809224318,75.3961230607966,564,1597668,819128,778540,1085443,603793,481650,219976,112212,107764,141380,72109,69271,730066,490731,239335,1281878,297927,2406,419,68,9834,702,67.94,95.04,73.71,61.87
Karnataka,Kodagu,12.39684468085106,75.79336595744688,576,554519,274608,279911,412877,215302,197575,73584,35759,37825,58054,28510,29544,278938,172100,106838,448986,87274,17130,139,126,250,220,74.46,101.93,78.4,70.58
Karnataka,Kolar,13.312799881235172,78.01376947743476,581,1536401,776396,760005,1016219,564110,452109,465867,232546,233321,78875,39997,38878,717872,454048,263824,1305431,199873,26722,253,150,2494,92,66.14,97.89,72.66,59.49
Karnataka,Koppal,15.651253271028034,76.1617048598131,560,1389920,699926,689994,809085,468785,340300,258608,129341,129267,164271,82761,81510,654766,387974,266792,1218024,161770,4081,296,85,2898,461,58.21,98.58,66.98,49.32
Karnataka,Mandya,12.574901806239744,76.81570098522172,573,1805769,905085,900684,1149649,638668,510981,265294,131675,133619,22402,11310,11092,871408,575203,296205,1712695,77801,8506,322,299,3607,109,63.67,99.51,70.56,56.73
Karnataka,Mysore,12.248100259403367,76.52881802853437,577,3001127,1511600,1489527,1962180,1063766,898414,536643,269331,267312,334547,166697,167850,1314268,921803,392465,2631985,290549,39361,1255,16194,14419,493,65.38,98.54,70.37,60.32
Karnataka,Raichur,16.050795353982295,76.87368606194688,559,1928812,964511,964301,979769,577213,402556,400933,200359,200574,367071,182101,184970,903413,530373,373040,1634062,272022,10394,538,2265,4156,29,50.8,99.98,59.85,41.75
Karnataka,Shimoga,14.063845885634592,75.17882078103197,568,1752753,877415,875338,1263016,674938,588078,308158,153546,154612,65412,32707,32705,780598,534487,246111,1479424,234664,26521,400,120,9234,367,72.06,99.76,76.92,67.18
Karnataka,Tumkur,13.592467760074973,77.02297966260545,571,2678980,1350594,1328386,1813391,1006024,807367,506901,254535,252366,209559,105265,104294,1354646,837512,517134,2413812,245923,9130,477,187,5067,161,67.69,98.36,74.49,60.78
Karnataka,Udupi,13.450404228534568,74.72009990316337,569,1177361,562131,615230,926429,465704,460725,75429,36988,38441,52897,26228,26669,513241,335399,177842,1009179,96740,65838,232,161,4534,155,78.69,109.45,82.85,74.89
Kerala,Alappuzha,9.542602965599087,76.38010796263319,598,2127789,1013142,1114647,1852797,890552,962245,201211,97183,104028,6574,3175,3399,804471,536738,267733,1460447,224545,435056,268,146,74,311,87.08,110.02,87.9,86.33
Kerala,Ernakulam,10.004879301987431,76.26957729035381,595,3282388,1619557,1662831,2855676,1425723,1429953,268411,131573,136838,16559,8349,8210,1249343,913249,336094,1509557,514397,1248137,860,614,1176,1083,87.0,102.67,88.03,86.0
Kerala,Idukki,9.80480963855423,77.04586641566264,596,1108974,552808,556166,923010,471881,451129,145486,72399,73087,55815,27995,27820,516363,331710,184653,541854,82206,481507,100,189,44,384,83.23,100.61,85.36,81.11
Kerala,Kannur,11.941523076923056,75.35209891725934,589,2523003,1181446,1341557,2138434,1012956,1125478,83350,40260,43090,41371,20141,21230,824116,609377,214739,1509592,742483,262526,424,1118,193,722,84.76,113.55,85.74,83.89
Kerala,Kasaragod,12.33310309912974,75.07768497134369,588,1307375,628613,678762,1037492,516476,521016,53283,26385,26898,48857,23950,24907,462998,325095,137903,729987,486913,87454,151,362,130,152,79.36,107.98,82.16,76.76
Kerala,Kollam,8.929388820570157,76.6360775852431,600,2635375,1246968,1388407,2240273,1074345,1165928,328263,157801,170462,10761,5195,5566,912025,644362,267663,1697635,508500,421598,208,272,63,619,85.01,111.34,86.16,83.98
Kerala,Kottayam,9.643701174068417,76.46059673302705,597,1974551,968289,1006262,1749798,861592,888206,153909,75503,78406,21972,10974,10998,735735,530322,205413,983598,126499,858608,204,358,83,565,88.62,103.92,88.98,88.27
Kerala,Kozhikode,11.392924270557026,75.71158720159153,591,3086293,1470942,1615351,2615443,1266939,1348504,199191,97279,101912,15228,7429,7799,948981,752333,196648,1734958,1211131,131516,297,235,601,588,84.74,109.82,86.13,83.48
Kerala,Malappuram,10.97329875666072,75.93910775606876,592,4112920,1960328,2152592,3311315,1597404,1713911,308266,151557,156709,22990,11272,11718,1062424,898157,164267,1135259,2888849,81556,205,179,68,579,80.51,109.81,81.49,79.62
Kerala,Palakkad,10.784926903553291,76.49980490693744,593,2809934,1359478,1450456,2239492,1122600,1116892,403833,197451,206382,48972,24314,24658,1042340,746121,296219,1875980,812936,114397,220,238,78,400,79.7,106.69,82.58,77.0
Kerala,Thiruvananthapuram,8.537101759082221,76.88711502868073,601,3301427,1581678,1719749,2785408,1354857,1430551,372977,178589,194388,26759,12624,14135,1231669,864101,367568,2194057,452915,630573,404,301,76,1082,84.37,108.73,85.66,83.18
Kerala,Thrissur,10.458932647907687,76.12321940836945,594,3121200,1480763,1640437,2678548,1282261,1396287,324350,156480,167870,9430,4362,5068,1095727,789511,306216,1823442,532839,757484,259,278,62,585,85.82,110.78,86.59,85.12
Kerala,Wayanad,11.715277464788736,76.07587007042254,590,817420,401684,415736,645585,328136,317449,32578,16406,16172,151443,74476,76967,340077,228639,111438,404460,234185,174453,61,312,1797,286,78.98,103.5,81.69,76.36
Madhya Pradesh,Anuppur,23.18184220430107,81.86560000000007,461,749237,379114,370123,436595,254120,182475,74385,37841,36544,358543,177977,180566,346471,207401,139070,686524,21473,2132,606,86,1653,35434,58.27,97.63,67.03,49.3
Madhya Pradesh,Ashoknagar,24.63098846153845,77.82974493927134,459,845071,443837,401234,469109,290304,178805,175764,92216,83548,82072,42447,39625,315270,231829,83441,778214,40707,635,8009,1352,15094,27,55.51,90.4,65.41,44.56
Madhya Pradesh,Balaghat,21.80020720640569,80.42170053380796,457,1701698,842178,859520,1147623,626468,521155,125426,61576,63850,383026,186979,196047,893014,488610,404404,1519384,38542,5295,1050,72162,4778,58064,67.44,102.06,74.39,60.63
Madhya Pradesh,Barwani,21.702135714285724,74.91004719710673,441,1385881,699340,686541,549926,313642,236284,87991,44478,43513,962145,482182,479963,653897,365928,287969,1318869,58222,2967,2361,416,2289,263,39.68,98.17,44.85,34.42
Madhya Pradesh,Betul,21.964626315789477,77.7873428189117,447,1575362,799236,776126,939769,529783,409986,159296,81621,77675,667018,333166,333852,786980,453887,333093,1505745,37590,3271,1078,9651,3759,13048,59.65,97.11,66.29,52.82
Madhya Pradesh,Bhind,26.35951126187245,78.7618324287653,420,1703005,926843,776162,1094917,676513,418404,374799,204212,170587,6131,3283,2848,520768,455775,64993,1595400,66776,973,4047,12215,19950,73,64.29,83.74,72.99,53.91
Madhya Pradesh,Bhopal,23.480726143790854,77.39246623093679,444,2371061,1236130,1134931,1660690,920314,740376,357516,185902,171614,69429,35966,33463,867457,644960,222497,1755861,525434,23432,10789,21688,25950,335,70.04,91.81,74.45,65.24
Madhya Pradesh,Burhanpur,21.364567254408065,76.24460478589425,467,757847,388504,369343,408679,233073,175606,64254,33037,31217,230095,116420,113675,328339,211925,116414,552526,180840,1199,1074,19883,1884,99,53.93,95.07,59.99,47.55
Madhya Pradesh,Chhatarpur,24.813637376460004,79.56449299191374,425,1762375,936121,826254,943033,572010,371023,405313,215258,190055,73597,38081,35516,751797,481518,270279,1676918,70351,1980,968,250,10409,102,53.51,88.26,61.1,44.9
Madhya Pradesh,Chhindwara,22.227966971713823,78.76413136439254,455,2090922,1064468,1026454,1294198,731294,562904,232244,118465,113779,769778,385785,383993,957984,582263,375721,1923920,100692,4893,2258,24471,7830,25771,61.9,96.43,68.7,54.84
Madhya Pradesh,Damoh,23.76624407960196,79.47049303482588,428,1264219,661873,602346,747715,445737,301978,246337,129877,116460,166295,84809,81486,574595,367711,206884,1186420,47966,1681,1096,119,25005,82,59.14,91.01,67.34,50.13
Madhya Pradesh,Datia,25.90226439560441,78.63916571428574,422,786754,420157,366597,491445,303815,187630,200270,107132,93138,15061,7870,7191,321160,225662,95498,747693,28483,683,490,7923,453,10,62.46,87.25,72.31,51.18
Madhya Pradesh,Dewas,22.7851110021322,76.46088805970157,437,1563715,805359,758356,925369,550716,374653,292007,150260,141747,272701,139174,133527,742676,451501,291175,1376591,174259,2355,2330,382,6497,72,59.18,94.16,68.38,49.4
Madhya Pradesh,Dhar,22.572681718963157,75.1105620736698,438,2185793,1112725,1073068,1077338,638479,438859,145436,74291,71145,1222814,614619,608195,1027974,597079,430895,2051219,116202,2261,1607,328,12199,88,49.29,96.44,57.38,40.9
Madhya Pradesh,Dindori,22.83738437047757,81.04332966714911,453,704524,351913,352611,378714,222759,155955,39782,20366,19416,455789,225699,230090,389925,203383,186542,605435,6736,4238,260,61,687,84006,53.75,100.2,63.3,44.23
Madhya Pradesh,Guna,24.49043927178156,77.2235895968791,458,1241519,649362,592157,653980,400537,253443,193115,100646,92469,190819,98206,92613,514897,335454,179443,1172248,49203,1208,3271,529,13474,52,52.68,91.19,61.68,42.8
Madhya Pradesh,Gwalior,26.04074441964285,78.12782433035713,421,2032036,1090327,941709,1357210,803114,554096,393068,210354,182714,72133,37704,34429,685311,548820,136491,1835299,141735,4119,24790,4361,18058,217,66.79,86.37,73.66,58.84
Madhya Pradesh,Harda,22.227659781121783,77.07022571819435,448,570465,294838,275627,352550,203807,148743,92865,48553,44312,159678,81446,78232,230979,156852,74127,527462,38640,683,676,93,1573,55,61.8,93.48,69.13,53.97
Madhya Pradesh,Hoshangabad,22.595268801996703,78.02168094841929,449,1241350,648725,592625,810644,469199,341445,205007,107237,97770,197300,101041,96259,478082,345435,132647,1175203,52269,4453,3127,1550,3888,107,65.3,91.35,72.33,57.62
Madhya Pradesh,Indore,22.680265752128648,75.9133801324502,439,3276697,1699627,1577070,2309130,1289631,1019499,545239,280184,265055,217679,112687,104992,1268195,939055,329140,2728225,415142,18523,25696,11496,71667,720,70.47,92.79,75.88,64.65
Madhya Pradesh,Jabalpur,23.18525572327043,79.98328754716981,451,2463289,1277278,1186011,1756468,980307,776161,348029,179858,168171,375231,189915,185316,1005624,705970,299654,2159065,203652,23142,13256,4320,33728,21010,71.31,92.85,76.75,65.44
Madhya Pradesh,Jhabua,22.419578015397768,74.40921616766468,464,1025048,515023,510025,352081,214582,137499,17427,8770,8657,891818,446359,445459,515121,265489,249632,960925,15733,38423,141,65,8871,388,34.35,99.03,41.66,26.96
Madhya Pradesh,Katni,23.724416229116937,80.33819665871127,450,1292042,662013,630029,790773,460583,330190,155717,79369,76348,317699,159799,157900,543874,348410,195464,1240650,37232,3158,1167,157,5342,2643,61.2,95.17,69.57,52.41
Madhya Pradesh,Mandla,22.70348712446353,80.38600543633753,454,1054905,525272,529633,604962,348033,256929,48425,24652,23773,610528,299918,310610,559649,300235,259414,849518,16558,12450,436,297,1789,170533,57.35,100.83,66.26,48.51
Madhya Pradesh,Mandsaur,24.19278764044944,75.43588667736759,433,1340411,682851,657560,834591,502898,331693,249024,126822,122202,33092,17023,16069,679723,397714,282009,1192588,125548,1120,849,242,19029,77,62.26,96.3,73.65,50.44
Madhya Pradesh,Morena,26.37313504531724,77.88447341389724,419,1965970,1068417,897553,1179685,747652,432033,421519,228548,192971,17030,8947,8083,675993,525329,150664,1875495,76159,1092,557,3234,6681,92,60.01,84.01,69.98,48.13
Madhya Pradesh,Neemuch,24.70311893333336,75.06608186666664,432,826067,422653,403414,508834,307889,200945,111162,56400,54762,71441,36738,34703,418682,245708,172974,741288,67324,1508,1110,224,14165,115,61.6,95.45,72.85,49.81
Madhya Pradesh,Panna,24.451325840092657,80.21133001158752,426,1016520,533480,483040,552559,332140,220419,207990,109421,98569,170879,87697,83182,431998,275375,156623,974748,35214,418,186,37,4734,218,54.36,90.55,62.26,45.63
Madhya Pradesh,Raisen,23.292518206521724,78.16305495923909,446,1331597,700358,631239,820220,479093,341127,225891,119226,106665,205006,105627,99379,517838,370366,147472,1195235,120331,1725,2262,253,10637,190,61.6,90.13,68.41,54.04
Madhya Pradesh,Rajgarh,23.785499026425583,76.66431223922116,442,1545814,790212,755602,804245,488797,315448,295718,151260,144458,53751,27477,26274,745603,429768,315835,1433879,106928,1243,460,121,1599,50,52.03,95.62,61.86,41.75
Madhya Pradesh,Ratlam,23.503562290502792,75.14895782122909,434,1455069,738241,716828,825880,485090,340790,198612,100629,97983,409865,206290,203575,690980,411446,279534,1267043,151071,3996,1353,175,29353,123,56.76,97.1,65.71,47.54
Madhya Pradesh,Rewa,24.861184625158856,81.57572465057183,430,2365106,1225100,1140006,1441757,845572,596185,383508,198144,185364,311985,161696,150289,991946,617184,374762,2268838,85414,1964,832,986,655,232,60.96,93.05,69.02,52.3
Madhya Pradesh,Sagar,23.800318709677374,78.71940357771273,427,2378458,1256257,1122201,1545719,908607,637112,501630,266306,235324,221936,114771,107165,1006035,682077,323958,2198297,103480,5580,4146,991,62992,168,64.99,89.33,72.33,56.77
Madhya Pradesh,Satna,24.62777621776502,80.75547048710598,429,2228935,1157495,1071440,1371781,801051,570730,398569,205987,192582,319975,163166,156809,911349,590487,320862,2158623,59471,2228,1163,364,3135,1689,61.54,92.57,69.21,53.27
Madhya Pradesh,Sehore,22.9297199679658,77.06780202883085,445,1311332,683743,627589,780362,469208,311154,271281,141366,129915,145512,74391,71121,586087,364559,221528,1163607,137980,1404,640,357,6232,66,59.51,91.79,68.62,49.58
Madhya Pradesh,Seoni,22.33230487804874,79.66053863928111,456,1379131,695879,683252,864194,485341,378853,130797,66830,63967,519856,258121,261735,684434,394660,289774,1145052,79739,1857,360,7288,4982,135315,62.66,98.19,69.75,55.45
Madhya Pradesh,Shahdol,23.44859864559819,81.4596831828442,460,1066063,540021,526042,604194,348761,255433,89733,45547,44186,476008,236947,239061,493057,292402,200655,997073,42426,2372,912,268,1737,19448,56.68,97.41,64.58,48.56
Madhya Pradesh,Shajapur,23.566620317220547,76.33555181268885,436,1512681,780520,732161,894612,543509,351103,353914,182961,170953,37836,19416,18420,717871,431857,286014,1321003,174724,815,631,179,13755,66,59.14,93.8,69.63,47.95
Madhya Pradesh,Sheopur,25.78014810996563,77.16911116838484,418,687861,361784,326077,328025,208201,119824,108391,57838,50553,161448,82637,78811,277455,183788,93667,638702,41396,230,6387,201,379,40,47.69,90.13,57.55,36.75
Madhya Pradesh,Shivpuri,25.37802451874367,77.74861600810549,423,1726050,919795,806255,900846,573242,327604,321515,171565,149950,227802,117111,110691,759281,481001,278280,1648749,51200,1117,7151,3421,12171,72,52.19,87.66,62.32,40.63
Madhya Pradesh,Sidhi,24.17547189952905,82.1053783359498,462,1127033,575912,551121,600785,353030,247755,130202,66174,64028,313304,159192,154112,461760,284289,177471,1077545,34419,511,128,92,93,12556,53.31,95.7,61.3,44.95
Madhya Pradesh,Tikamgarh,25.14099852104666,78.89357064846428,424,1445166,760355,684811,747940,459353,288587,361604,190666,170938,67857,34923,32934,655318,402776,252542,1383475,44143,588,251,109,15569,39,51.75,90.06,60.41,42.14
Madhya Pradesh,Ujjain,23.319288862745065,75.80383717647058,435,1986864,1016289,970575,1240990,730817,510173,523869,267235,256634,48730,24925,23805,897442,569425,328017,1718204,233133,4659,3241,945,24622,211,62.46,95.5,71.91,52.56
Madhya Pradesh,Umaria,23.59601063063061,80.90879477477475,431,644758,330674,314084,356672,210907,145765,58147,29902,28245,300687,151988,148699,289691,175698,113993,620515,15966,667,190,70,220,6028,55.32,94.98,63.78,46.41
Madhya Pradesh,Vidisha,23.82838307984792,77.9013507604563,443,1458875,769568,689307,862918,512344,350574,292144,154504,137640,67603,34993,32610,550402,401583,148819,1287391,149548,1313,914,295,18490,70,59.15,89.57,66.58,50.86
Maharashtra,Akola,20.746310479041902,77.12122320359276,501,1813906,932334,881572,1411281,758977,652304,364059,186244,177815,100280,51359,48921,768154,520362,247792,1107809,357253,4483,1504,328033,10205,389,77.8,94.56,81.41,73.99
Maharashtra,Amravati,21.16520991810736,77.67583503184723,503,2888445,1480768,1407677,2251875,1207104,1044771,506374,259398,246976,404128,205834,198294,1236322,837577,398745,2055177,421410,7223,2242,383891,11360,3288,77.96,95.06,81.52,74.22
Maharashtra,Aurangabad,20.0979228832952,75.32072196796334,235,2540073,1318684,1221389,1466002,868733,597269,612064,316161,295903,1033,500,533,837770,599157,238613,2291133,237353,2218,295,334,775,19,57.71,92.62,65.88,48.9
Maharashtra,Aurangabad,20.0979228832952,75.32072196796334,515,3701282,1924469,1776813,2503837,1430936,1072901,539368,277228,262140,143366,73876,69490,1575079,1015864,559215,2545438,786677,15991,5142,309093,30981,1005,67.65,92.33,74.35,60.38
Maharashtra,Bhandara,21.211792649727748,80.10950199637024,506,1200334,605520,594814,899860,488709,411151,200372,100421,99951,88886,44515,44371,597305,345054,252251,1009352,26502,2145,831,154458,1017,3555,74.97,98.23,80.71,69.12
Maharashtra,Bid,18.952353340080982,75.69319706477731,523,2585049,1349106,1235943,1718507,987185,731322,351254,179777,171477,32722,16806,15916,1255548,727819,527729,2174672,320395,2097,824,68482,8719,399,66.48,91.61,73.17,59.17
Maharashtra,Buldana,20.56680611183355,76.39017880364096,500,2586258,1337560,1248698,1879874,1048892,830982,470895,241445,229450,124837,64153,60684,1219641,734024,485617,1845424,354236,3531,1668,364229,12242,522,72.69,93.36,78.42,66.55
Maharashtra,Chandrapur,20.095609090909075,79.31556380471388,509,2204307,1123834,1080473,1578615,872565,706050,348365,176898,171467,389441,196753,192688,1058172,648565,409607,1780085,92297,10701,5251,286734,3861,23188,71.62,96.14,77.64,65.35
Maharashtra,Dhule,21.274018690400517,74.58719071837263,498,2050862,1054031,996831,1293916,723388,570528,127571,65068,62503,647315,327034,320281,936370,570448,365922,1825460,187901,3653,1422,13405,12818,912,63.09,94.57,68.63,57.23
Maharashtra,Gondiya,21.225008411214997,80.17522698598128,507,1322507,661554,660953,1004243,542837,461406,175961,87434,88527,214253,105944,108309,665419,383151,282268,1153861,26157,1827,2160,125282,1568,5080,75.93,99.91,82.05,69.81
Maharashtra,Hingoli,19.59525302245251,77.09239412780653,512,1177345,606294,571051,790743,450551,340192,182565,93379,89186,111954,57674,54280,569182,330903,238279,863199,127552,992,643,176679,5278,103,67.16,94.19,74.31,59.57
Maharashtra,Jalgaon,20.8828943415638,75.55140421810695,499,4229917,2197365,2032552,2891882,1629223,1262659,389273,199427,189846,604367,310150,294217,1863571,1186472,677099,3457615,560261,7091,3091,143865,27404,9662,68.37,92.5,74.14,62.12
Maharashtra,Jalna,19.984612534818933,75.98473607242339,514,1959046,1011473,947573,1195523,699428,496095,272266,138957,133309,42263,21988,20275,930886,545030,385856,1504641,274221,12542,1629,152540,9619,336,61.03,93.68,69.15,52.35
Maharashtra,Kolhapur,16.44881301587301,74.12897150793648,530,3876001,1980658,1895343,2825845,1559760,1266085,504461,253390,251071,30206,15478,14728,1704054,1125204,578850,3379906,286558,15573,1570,29766,154882,1274,72.91,95.69,78.75,66.8
Maharashtra,Latur,18.348687268993856,76.75812607802874,524,2454196,1273140,1181056,1650672,932432,718240,480913,247918,232995,57488,29872,27616,1046857,670018,376839,2006984,367664,2387,935,66535,6387,310,67.26,92.77,73.24,60.81
Maharashtra,Nagpur,21.196556862745105,79.02166176470584,505,4653570,2384975,2268595,3673808,1959220,1714588,867713,439205,428508,437571,223566,214005,1868560,1334211,534349,3492202,390974,34667,20469,668050,24528,12181,78.95,95.12,82.15,75.58
Maharashtra,Nanded,19.209316983017,77.6829048951049,511,3361292,1730075,1631217,2189425,1255222,934203,640483,328797,311686,281695,143892,137803,1493953,925232,568721,2501741,471951,3902,13540,354189,5049,1273,65.14,94.29,72.55,57.27
Maharashtra,Nandurbar,21.523175625248147,74.32638757443429,497,1648295,833170,815125,906509,512099,394410,47985,24273,23712,1141933,568026,573907,792065,442898,349167,1521618,96182,8467,685,4969,6191,2907,55.0,97.83,61.46,48.39
Maharashtra,Nashik,20.266912871287143,74.03824168316828,516,6107187,3157186,2950001,4345366,2397538,1947828,554687,282213,272474,1564369,792547,771822,2763328,1746286,1017042,5237009,693052,23946,8912,94783,38212,1795,71.15,93.44,75.94,66.03
Maharashtra,Osmanabad,18.19459456066944,75.99495575313809,525,1657576,861535,796041,1137810,644304,493506,265184,136354,128830,36039,18569,17470,773916,473795,300121,1437623,178925,942,340,28216,4530,195,68.64,92.4,74.79,62.0
Maharashtra,Parbhani,19.31032425249168,76.70163338870431,513,1836086,942870,893216,1157814,666291,491523,247308,125883,121425,40514,20570,19944,822797,501422,321375,1328385,306364,2081,1371,187899,6238,262,63.06,94.73,70.67,55.03
Maharashtra,Pune,18.51696171428573,74.12922881632647,521,9429408,4924105,4505303,7171723,3940210,3231513,1180703,602755,577948,348876,179132,169744,4048993,2809816,1239177,8090254,673704,134192,27090,340404,127786,9873,76.06,91.49,80.02,71.73
Maharashtra,Raigarh,18.453257637845976,73.0090609418579,403,1493984,750278,743706,951639,542756,408883,224942,112111,112831,505609,250473,255136,690167,429211,260956,1422986,17332,47653,2117,781,409,1782,63.7,99.12,72.34,54.98
Maharashtra,Raigarh,18.453257637845976,73.0090609418579,520,2634200,1344345,1289855,1939994,1059692,880302,134952,67980,66972,305125,153657,151468,1072969,753843,319126,2239370,227465,17452,7477,121791,12260,1159,73.65,95.95,78.83,68.25
Maharashtra,Ratnagiri,17.210195070127703,73.25725893866404,528,1615069,761121,853948,1199392,619012,580380,66948,31967,34981,20374,10402,9972,714076,407008,307068,1307211,187197,1990,230,113467,3347,95,74.26,112.2,81.33,67.96
Maharashtra,Sangli,17.154930181086502,74.70713822937628,531,2822143,1435728,1386415,2049467,1121550,927917,353093,177108,175985,18333,9406,8927,1215104,800214,414890,2440312,239607,9098,1260,38210,87453,769,72.62,96.57,78.12,66.93
Maharashtra,Satara,17.6737908974359,74.18052064102558,527,3003741,1510842,1492899,2225694,1201034,1024660,323236,161703,161533,29635,15210,14425,1354947,844805,510142,2691952,146970,4408,1182,141315,12810,676,74.1,98.81,79.49,68.64
Maharashtra,Sindhudurg,16.170948049777163,73.51329008172343,529,849651,417332,432319,666067,348289,317778,55586,26830,28756,6976,3575,3401,347178,229676,117502,780384,26264,15471,219,24762,1046,53,78.39,103.59,83.46,73.51
Maharashtra,Solapur,17.837357937584812,75.42394823609216,526,4317756,2227852,2089904,2910676,1651266,1259410,649745,331960,317785,77592,39785,37807,1898395,1206933,691462,3795424,441254,9882,1279,35497,28134,568,67.41,93.81,74.12,60.26
Maharashtra,Thane,19.698767747440264,72.79882742564581,517,11060148,5865078,5195070,8227161,4591396,3635765,730089,377885,352204,1542451,769192,773259,4492767,3363123,1129644,8716055,1355630,280700,39149,449617,172052,9862,74.39,88.58,78.28,69.98
Maharashtra,Wardha,20.80743024390242,78.57259105691062,504,1300774,668385,632389,1019458,552617,466841,188830,96569,92261,149507,76698,72809,608235,392316,215919,1057096,53854,2696,2147,175417,5663,2254,78.37,94.61,82.68,73.82
Maharashtra,Washim,20.282282394366213,77.25502394366208,502,1197160,620302,576858,869917,487703,382214,229462,117867,111595,80471,41403,39068,569792,340353,229439,859949,142672,1707,518,179330,8476,381,72.67,93.0,78.62,66.26
Maharashtra,Yavatmal,20.04258346738159,78.05326371760479,510,2772348,1419965,1352383,2022574,1115980,906594,328518,167009,161509,514057,260896,253161,1355999,815475,540524,2251401,239236,4567,1596,249874,11422,3745,72.96,95.24,78.59,67.04
Manipur,Bishnupur,24.50712111801243,93.8246236024845,275,237399,118782,118617,156333,87313,69020,22113,11085,11028,3287,1625,1662,109937,62807,47130,175102,18691,4264,56,76,16,38457,65.85,99.86,73.51,58.19
Manipur,Chandel,24.2635812987013,94.09443844155844,280,144182,74579,69603,90302,51053,39249,540,321,219,128280,63622,64658,76238,42615,33623,10810,3086,129049,136,400,59,354,62.63,93.33,68.45,56.39
Manipur,Churachandpur,24.30309718875504,93.38671506024085,274,274143,138820,135323,195935,104013,91922,443,244,199,254787,126328,128459,122655,70594,52061,12034,2886,254979,152,495,87,2333,71.47,97.48,74.93,67.93
Manipur,Senapati,25.08465586034914,94.03366234413956,272,479148,247323,231825,264477,148012,116465,1000,536,464,419210,214519,204691,233622,124143,109479,43833,1649,426819,140,2409,53,1243,55.2,93.73,59.85,50.24
Manipur,Tamenglong,24.98312942238265,93.49450740072204,273,140651,72371,68280,85006,47403,37603,22,17,5,134626,68226,66400,70675,37237,33438,2995,589,134760,59,425,57,1144,60.44,94.35,65.5,55.07
Manipur,Thoubal,24.545392553191498,93.97959893617023,276,422168,210845,211323,269304,152617,116687,40593,20137,20456,1808,929,879,195319,109377,85942,267146,107323,4322,106,114,24,42347,63.79,100.23,72.38,55.22
Manipur,Ukhrul,25.05900314960629,94.44129566929138,279,183998,94718,89280,129829,70148,59681,248,160,88,173606,87970,85636,87929,46533,41396,7553,1115,174112,108,635,70,32,70.56,94.26,74.06,66.85
Meghalaya,East Garo Hills,25.82728228228228,90.64684924924916,294,317917,161223,156694,192147,102513,89634,509,304,205,305180,153861,151319,126073,72262,53811,17272,3359,289708,56,1004,38,5617,60.44,97.19,63.58,57.2
Meghalaya,East Khasi Hills,25.303763888888884,91.75922519841272,298,825922,410749,415173,578030,287270,290760,5642,2924,2718,661158,320048,341110,326786,204303,122483,144935,14185,543394,2495,3111,303,115597,69.99,101.08,69.94,70.03
Meghalaya,Jaintia Hills,25.33959557069844,92.37608160136298,299,395124,196285,198839,187527,87371,100156,1317,784,533,376099,185866,190233,154180,88839,65341,12456,1646,271596,34,284,45,107559,47.46,101.3,44.51,50.37
Meghalaya,South Garo Hills,25.240568578553614,90.64560349127176,295,142334,73170,69164,82062,45003,37059,319,188,131,134237,68140,66097,53069,32826,20243,7036,1050,132984,27,332,10,362,57.65,94.53,61.5,53.58
Meghalaya,West Garo Hills,25.495285185185185,90.03709947089942,293,643291,324159,319132,358702,193438,165264,8810,4535,4275,474009,236772,237237,255693,151914,103779,122936,106788,389956,209,3392,144,16950,55.76,98.45,59.67,51.79
Meghalaya,West Khasi Hills,25.500889926739926,91.25364542124538,296,383461,193715,189746,230678,117307,113371,168,93,75,375097,189134,185963,163345,89694,73651,6498,1533,366881,58,1313,38,5878,60.16,97.95,60.56,59.75
Mizoram,Aizawl,23.90781335453101,92.85359459459472,283,400309,199270,201039,340595,169547,171048,627,388,239,373542,182517,191025,174636,104643,69993,13249,5264,379134,105,1570,76,505,85.08,100.89,85.08,85.08
Mizoram,Champhai,23.54166580976866,93.24221799485862,284,125745,63388,62357,100802,51440,49362,17,16,1,123466,61954,61512,60342,34129,26213,1075,699,123446,9,151,45,194,80.16,98.37,81.15,79.16
Mizoram,Kolasib,24.2020004347826,92.73470391304348,282,83955,42918,41037,65895,34147,31748,84,59,25,73609,36917,36692,36672,22733,13939,4000,4426,75210,16,108,2,46,78.49,95.62,79.56,77.36
Mizoram,Lawngtlai,22.36102843137253,92.66964156862753,287,117894,60599,57295,62861,36444,26417,146,105,41,112354,57044,55310,45566,28517,17049,1668,522,63892,52,51549,122,2,53.32,94.55,60.14,46.11
Mizoram,Lunglei,23.007717036172675,92.63512555425892,286,161428,82891,78537,121122,64515,56607,178,125,53,153533,77180,76353,78292,46230,32062,5231,1290,127124,74,27543,93,5,75.03,94.75,77.83,72.08
Mizoram,Mamit,23.73852942502819,92.4330803833147,281,86364,44828,41536,60191,32977,27214,51,42,9,82080,42075,40005,39339,24016,15323,2989,1782,69104,13,12328,25,19,69.69,92.66,73.56,65.52
Mizoram,Saiha,22.35744801061008,93.02827931034489,288,56574,28594,27980,42233,21861,20372,83,52,31,54642,27226,27416,19461,12211,7250,933,514,54977,11,102,4,2,74.65,97.85,76.45,72.81
Mizoram,Serchhip,23.263864705882344,92.914158496732,285,64937,32851,32086,54476,27598,26878,32,20,12,62889,31381,31508,32397,18261,14136,991,335,63444,6,60,9,35,83.89,97.67,84.01,83.77
Nagaland,Dimapur,25.814176811594223,93.75074057971014,265,378811,197394,181417,278037,150142,127895,0,0,0,223989,110892,113097,151350,99645,51705,108900,31212,234239,566,1270,2148,157,73.4,91.91,76.06,70.5
Nagaland,Kohima,25.60311428571428,93.78600657596373,270,267988,138966,129022,197489,107038,90451,0,0,0,224738,110617,114121,114825,68140,46685,25496,4384,234955,998,1519,80,335,73.69,92.84,77.02,70.11
Nagaland,Mokokchung,26.478911764705888,94.522426006192,262,194622,101092,93530,159494,83479,76015,0,0,0,178431,90567,87864,100067,57084,42983,9840,2057,181847,78,442,66,6,81.95,92.52,82.58,81.27
Nagaland,Mon,26.69207374301676,95.03072988826828,261,250260,131753,118507,119626,67432,52194,0,0,0,238285,124343,113942,147654,79425,68229,8102,3444,236494,84,1256,314,1,47.8,89.95,51.18,44.04
Nagaland,Phek,25.63272986577182,94.56814563758392,266,163418,83743,79675,105893,57926,47967,0,0,0,157146,79536,77610,80277,41556,38721,3563,950,158224,31,350,17,198,64.8,95.14,69.17,60.2
Nagaland,Tuensang,26.21104453280316,94.85809880715708,267,196596,101933,94663,117511,63653,53858,0,0,0,190916,98212,92704,98154,52931,45223,2979,1052,191864,27,572,5,1,59.77,92.87,62.45,56.89
Nagaland,Wokha,26.202611551155112,94.1990815181518,264,166343,84505,81838,128208,67385,60823,0,0,0,156621,78816,77805,78412,42096,36316,5605,2043,158236,34,318,8,20,77.07,96.84,79.74,74.32
Nagaland,Zunheboto,26.028178205128206,94.50026666666668,263,140757,71217,69540,102881,53504,49377,0,0,0,136561,68071,68490,79466,41178,38288,2580,772,136995,39,286,6,2,73.09,97.65,75.13,71.01
Orissa,Baleshwar,21.48570932311624,87.08085828011933,377,2320529,1185787,1134742,1621232,902359,718873,478586,243597,234989,275678,137748,137930,932707,684020,248687,2197709,94254,6434,237,111,201,18345,69.86,95.7,76.1,63.35
Orissa,Bhadrak,20.95262735257214,86.81496204516931,378,1506337,760260,746077,1094140,596269,497871,334896,168687,166209,30428,15361,15067,468599,409559,59040,1398543,104202,745,169,81,111,61,72.64,98.13,78.43,66.73
Orissa,Cuttack,20.407640646029623,85.7776810228802,381,2624470,1352760,1271710,2011469,1103033,908436,498633,254456,244177,93745,47437,46308,936365,761876,174489,2457729,141263,11985,1026,6276,1180,168,76.64,94.01,81.54,71.43
Orissa,Dhenkanal,20.79887159353349,85.53226836027711,383,1192811,612593,580218,829910,464093,365817,234079,118755,115324,162056,80878,81178,435533,340552,94981,1185542,4805,727,124,366,39,139,69.58,94.72,75.76,63.05
Orissa,Gajapati,19.121080882352945,84.14015091911759,389,577817,282882,294935,262537,153663,108874,39175,19037,20138,313714,151902,161812,293933,155907,138026,353160,1556,219482,53,2180,66,4,45.44,104.26,54.32,36.91
Orissa,Ganjam,19.2632617564534,84.80297710437702,388,3529031,1779218,1749813,2210050,1262652,947398,688235,342111,346124,118928,59172,59756,1501772,990027,511745,3486059,13315,23975,590,174,170,76,62.62,98.35,70.97,54.14
Orissa,Jharsuguda,21.827058566978184,83.93581682242987,371,579505,296690,282815,405879,228092,177787,104620,52580,52040,176758,88273,88485,247707,172018,75689,553587,12783,10462,1441,80,70,67,70.04,95.32,76.88,62.86
Orissa,Kalahandi,19.784253092783523,83.1124043814433,395,1576869,787101,789768,802036,484177,317859,286580,142133,144447,449456,221171,228285,751930,447290,304640,1555367,4975,11160,796,175,1225,220,50.86,100.34,61.51,40.25
Orissa,Kandhamal,20.092878624813142,84.02216352765326,390,733110,359945,373165,399786,233900,165886,115544,56987,58557,392820,190506,202314,355349,193515,161834,580300,2138,148895,82,290,47,23,54.53,103.67,64.98,44.45
Orissa,Kendrapara,20.606319815982264,86.83763247572003,379,1440361,717814,722547,1089265,579970,509295,309780,155531,154249,9484,4748,4736,466890,386382,80508,1386792,50247,1423,169,62,52,24,75.62,100.66,80.8,70.49
Orissa,Khordha,20.054162322274863,85.52234834123229,386,2251673,1167137,1084536,1749936,957515,792421,297472,151528,145944,115051,59094,55957,792193,645880,146313,2147632,84060,12527,1264,475,476,434,77.72,92.92,82.04,73.07
Orissa,Koraput,18.82627794779476,82.81278469846964,398,1379647,678809,700838,568090,340843,227247,196540,96789,99751,697583,337373,360210,693406,384053,309353,1294151,8850,68550,518,219,491,3384,41.18,103.25,50.21,32.43
Orissa,Malkangiri,18.25227930367506,81.98293636363628,399,613192,303624,309568,244706,147001,97705,138295,70052,68243,354614,171717,182897,310666,170495,140171,600219,1871,10039,213,43,195,35,39.91,101.96,48.42,31.56
Orissa,Mayurbhanj,21.897621545157754,86.4030408052231,376,2519738,1256213,1263525,1369397,794171,575226,184682,92127,92555,1479576,730487,749089,1223534,697782,525752,2113079,33706,15008,661,162,109,351714,54.35,100.58,63.22,45.53
Orissa,Nayagarh,20.192895622119817,85.05614700460825,385,962789,502636,460153,688362,392333,296029,136399,69813,66586,58691,29173,29518,343633,284591,59042,955754,5278,383,107,33,24,12,71.5,91.55,78.06,64.33
Orissa,Nuapada,20.471309512195116,82.59152536585364,394,610382,301962,308420,299383,180903,118480,82159,40742,41417,206327,100469,105858,305438,168155,137283,601092,4952,1778,724,76,905,22,49.05,102.14,59.91,38.42
Orissa,Puri,19.83509174603177,85.86698989898981,387,1698730,865380,833350,1291939,704857,587082,325133,164366,160767,6129,3240,2889,621676,498461,123215,1644905,46094,4239,193,243,94,302,76.05,96.3,81.45,70.45
Orissa,Rayagada,19.292840020060204,83.45860120361095,396,967911,471960,495951,407735,241959,165776,139514,68068,71446,541905,259040,282865,467122,258032,209090,874445,4607,84916,219,249,123,44,42.13,105.08,51.27,33.43
Orissa,Sambalpur,21.515752380952385,84.34958483245157,372,1041099,526877,514222,703691,393192,310499,191827,96511,95316,355261,177565,177696,505840,313161,192679,964188,20120,50637,2506,310,86,1117,67.59,97.6,74.63,60.38
Orissa,Sundargarh,22.06354819277107,84.50524819277099,374,2093437,1061147,1032290,1342322,750147,592175,191660,96465,95195,1062349,526856,535493,873227,584687,288540,1532352,71391,385011,5713,710,721,89986,64.12,97.28,70.69,57.37
Puducherry,Karaikal,10.876161726078813,79.82369793621002,637,200222,97809,102413,154916,79903,75013,35348,17206,18142,0,0,0,68301,53139,15162,152638,28835,18391,46,63,54,14,77.37,104.71,81.69,73.25
Puducherry,Mahe,12.006420793787758,75.28275021570326,636,41816,19143,22673,36470,16610,19860,144,77,67,0,0,0,11802,9093,2709,27940,12856,958,3,21,14,3,87.22,118.44,86.77,87.59
Puducherry,Yanam,16.707695652173904,82.26187304347832,634,55626,27301,28325,39274,19919,19355,8427,4100,4327,0,0,0,16760,14047,2713,53537,1191,873,3,1,4,4,70.6,103.75,72.96,68.33
Punjab,Amritsar,31.548679820627772,74.79883856502238,49,2490656,1318408,1172248,1684770,932981,751789,770864,405977,364887,0,0,0,917856,735195,182661,690939,12502,54344,1716935,876,3152,1044,67.64,88.91,70.77,64.13
Punjab,Bathinda,30.190524611973352,75.05685898004438,46,1388525,743197,645328,844868,488261,356607,450473,236936,213537,0,0,0,549986,432988,116998,380569,16299,2474,984286,246,1266,559,60.85,86.83,65.7,55.26
Punjab,Faridkot,30.591187250996025,74.79751553784862,45,617508,326671,290837,381285,215767,165518,240328,126567,113761,0,0,0,221555,185049,36506,141363,3125,1227,469789,155,1109,103,61.75,89.03,66.05,56.91
Punjab,Fatehgarh Sahib,30.64290947368421,76.36208394736842,40,600163,320795,279368,426033,238696,187337,192493,101882,90611,0,0,0,214783,182777,32006,152851,16808,1698,427521,48,178,251,70.99,87.09,74.41,67.06
Punjab,Firozpur,30.63407535211269,74.40245732394365,43,2029074,1071637,957437,1227511,707070,520441,855726,445461,410265,0,0,0,756695,596406,160289,906408,6844,19358,1090815,454,1143,278,60.5,89.34,65.98,54.36
Punjab,Gurdaspur,32.04283371212125,75.3204064393939,35,2298323,1212617,1085706,1634719,907660,727059,580576,304894,275682,0,0,0,757138,637652,119486,1074332,27667,176587,1002874,405,580,812,71.13,89.53,74.85,66.97
Punjab,Hoshiarpur,31.55157169811319,75.8469857442349,38,1586625,809057,777568,1199699,637927,561772,557504,284322,273182,0,0,0,499822,412506,87316,1000743,23089,14968,538208,3476,2034,531,75.61,96.11,78.85,72.25
Punjab,Jalandhar,31.250336907216507,75.54400350515463,37,2193590,1145211,1048379,1622537,882581,739956,854444,442124,412320,0,0,0,774472,639484,134988,1394329,30233,26016,718363,11385,4011,805,73.97,91.54,77.07,70.58
Punjab,Kapurthala,31.336592638036837,75.47641165644177,36,815168,426311,388857,576567,316254,260313,276707,143901,132806,0,0,0,284165,235562,48603,336124,10190,5445,453692,6662,553,334,70.73,91.21,74.18,66.94
Punjab,Ludhiana,30.76596397379912,75.83110851528383,41,3498739,1867816,1630923,2560225,1428348,1131877,923358,487839,435519,0,0,0,1284822,1053600,231222,1502403,77713,16517,1863408,2007,19620,1254,73.18,87.32,76.47,69.4
Punjab,Mansa,29.919547714285724,75.4304922857143,47,769751,408732,361019,423560,244037,179523,258878,136311,122567,0,0,0,328512,230739,97773,156539,10375,917,598443,123,1577,493,55.03,88.33,59.71,49.73
Punjab,Moga,30.756540067340065,75.1600845117845,42,995746,525920,469826,627889,348549,279340,363417,192418,170999,0,0,0,359172,292379,66793,158414,9388,3277,818921,178,436,365,63.06,89.33,66.27,59.46
Punjab,Muktsar,30.31243303303303,74.5518747747748,44,901896,475622,426274,524848,300401,224447,381554,200473,181081,0,0,0,335326,272699,62627,254920,4333,1681,638625,240,744,433,58.19,89.62,63.16,52.65
Punjab,Patiala,30.214540380693364,76.27505893949697,48,1895686,1002522,893164,1266791,711052,555739,465359,244503,220856,0,0,0,660267,549661,110606,783306,40043,5683,1059944,245,1914,1410,66.82,89.09,70.93,62.22
Punjab,Rupnagar,30.910937330754347,76.53743500967126,51,684627,357485,327142,502731,278534,224197,180905,94334,86571,0,0,0,233676,186910,46766,304481,14492,2094,361045,118,653,143,73.43,91.51,77.91,68.53
Punjab,Sangrur,30.185045204336895,75.89437014178496,53,1655169,878029,777140,1002077,570413,431664,461609,244231,217378,0,0,0,568758,485129,83629,389410,179116,2406,1077438,268,3222,1038,60.54,88.51,64.97,55.55
Rajasthan,Ajmer,26.199300378787903,74.6990419191919,119,2583052,1324085,1258967,1526673,926268,600405,478027,243750,234277,63482,32408,31074,1053722,686149,367573,2201663,314159,10605,6799,417,45614,184,59.1,95.08,69.96,47.69
Rajasthan,Alwar,27.55271738035265,76.65359630562563,104,3674179,1939026,1735153,2182476,1359829,822647,653036,342938,310098,289249,153397,135852,1708542,994171,714371,3039279,547335,2696,64532,4384,13221,348,59.4,89.49,70.13,47.41
Rajasthan,Banswara,23.453642032967014,74.44246868131869,125,1797485,907754,889731,829343,513854,315489,80091,40639,39452,1372999,690476,682523,916574,482236,434338,1701234,48834,22250,427,138,22613,109,46.14,98.01,56.61,35.46
Rajasthan,Baran,24.98023243243244,76.86210651828291,128,1222755,633945,588810,693307,432607,260700,221184,114969,106215,276857,143094,133763,552583,329754,222829,1133349,79984,1432,3066,84,2795,48,56.7,92.88,68.24,44.28
Rajasthan,Barmer,25.77070908045978,71.50297126436782,115,2603751,1369022,1234729,1188322,783461,404861,436414,228431,207983,176257,92610,83647,1202482,696240,506242,2244882,321192,1157,450,157,34010,34,45.64,90.19,57.23,32.79
Rajasthan,Bharatpur,27.32411858037578,77.21752077244258,105,2548462,1355726,1192736,1480869,943910,536959,557305,296293,261012,54090,28705,25385,1071154,647198,423956,2143046,371286,1576,23456,899,5758,18,58.11,87.98,69.62,45.02
Rajasthan,Bhilwara,25.45119767759564,74.63947595628417,122,2408523,1220736,1187787,1256126,777582,478544,407947,206332,201615,229273,117026,112247,1148165,674589,473576,2224839,142427,1978,1468,183,35149,60,52.15,97.3,63.7,40.29
Rajasthan,Bikaner,28.12489068322981,73.26943322981371,101,2363937,1240801,1123136,1278801,782399,496402,493646,259532,234114,7779,4207,3572,986208,640572,345636,2073356,235741,1901,20072,285,30850,79,54.1,90.52,63.06,44.2
Rajasthan,Bundi,25.48580716049379,75.79984074074079,121,1110906,577160,533746,585044,371705,213339,210788,109333,101455,228549,119454,109095,526091,314806,211285,1017688,66609,682,11059,144,13455,24,52.66,92.48,64.4,39.97
Rajasthan,Chittaurgarh,24.631623761665463,74.80010997846382,126,1544338,783171,761167,821825,514851,306974,250224,126748,123476,201546,101893,99653,802755,456632,346123,1413163,97855,1274,1515,252,25843,136,53.22,97.19,65.74,40.33
Rajasthan,Churu,28.29330375536484,74.65846427038629,102,2039547,1051446,988101,1149269,696729,452540,451721,235113,216608,11245,5903,5342,902829,541404,361425,1777879,249736,958,402,188,7104,127,56.35,93.98,66.26,45.8
Rajasthan,Dausa,26.91234817629181,76.57342097264443,109,1634409,857787,776622,938051,596935,341116,354337,185349,168988,433344,228554,204790,684495,398151,286344,1582335,45488,439,296,94,3737,115,57.39,90.54,69.59,43.92
Rajasthan,Dhaulpur,26.72397054945053,77.74476219780222,106,1206516,653647,552869,683098,435721,247377,245695,131875,113820,58594,31802,26792,523212,339110,184102,1127520,72258,688,1356,92,2739,21,56.62,84.58,66.66,44.74
Rajasthan,Dungarpur,23.75104807692308,73.84765641025645,124,1388552,696532,692020,681591,415820,265771,52267,26543,25724,983437,491631,491806,641515,346624,294891,1340065,28662,830,240,226,16141,853,49.09,99.35,59.7,38.41
Rajasthan,Ganganagar,29.256785412667963,73.56192303262948,99,1969168,1043340,925828,1193343,710908,482435,720412,376734,343678,13477,7160,6317,912672,596320,316352,1437144,50688,2077,474853,938,1988,164,60.6,88.74,68.14,52.11
Rajasthan,Hanumangarh,29.1813351791531,74.74632573289902,100,1774692,931184,843508,1034136,624281,409855,494189,258352,235837,14289,7578,6711,835260,512802,322458,1433067,118673,1542,216997,241,1935,138,58.27,90.58,67.04,48.59
Rajasthan,Jaipur,27.033459290187885,75.77117286012533,110,6626178,3468507,3157671,4300965,2554793,1746172,1003302,524831,478471,527966,276638,251328,2464893,1714947,749946,5819980,687452,12708,18782,1020,81079,257,64.91,91.04,73.66,55.3
Rajasthan,Jaisalmer,26.86900838548185,71.18371877346682,114,669919,361708,308211,308653,210415,98238,99134,52776,46358,42429,22497,19932,288903,182565,106338,497045,168129,874,1723,98,1521,34,46.07,85.21,58.17,31.87
Rajasthan,Jalor,25.07578093797277,72.18647261724662,116,1828730,936634,892096,829582,543923,285659,357196,185342,171854,178719,93290,85429,896644,494906,401738,1732852,78990,730,231,144,14640,82,45.36,95.24,58.07,32.02
Rajasthan,Jhalawar,24.24725541474657,76.11242891705065,129,1411129,725143,685986,739792,466815,272977,243582,125965,117617,182229,94185,88044,685950,402825,283125,1299751,96164,842,819,46,12488,42,52.43,94.6,64.38,39.79
Rajasthan,Jhunjhunun,28.13517401247401,75.52840893970894,103,2137045,1095896,1041149,1370360,815834,554526,360709,185879,174830,41629,21380,20249,894649,541392,353257,1905682,228178,1004,275,56,548,85,64.12,95.0,74.44,53.26
Rajasthan,Jodhpur,26.678460838536967,73.00450847457628,113,3687165,1923928,1763237,2031532,1265753,765779,608024,315199,292825,118924,61969,56955,1489741,965103,524638,3224399,411558,6035,4123,514,36697,80,55.1,91.65,65.79,43.43
Rajasthan,Karauli,26.51901555555556,76.96081818181815,107,1458248,783639,674609,805849,531904,273945,354465,189249,165216,324960,176200,148760,628726,371058,257668,1370977,81553,602,297,70,3424,413,55.26,86.09,67.88,40.61
Rajasthan,Kota,25.175718080000014,76.18618928000001,127,1951014,1021161,929853,1298345,765396,532949,405408,211161,194247,183816,96428,87388,748811,534650,214161,1661307,243993,5665,11058,280,25742,286,66.55,91.06,74.95,57.32
Rajasthan,Nagaur,27.07862016048146,74.14215667001012,112,3307743,1696325,1611418,1758624,1102750,655874,699911,360451,339460,10418,5475,4943,1425882,857031,568851,2833443,454487,1912,366,163,12940,276,53.17,94.99,65.01,40.7
Rajasthan,Pali,25.80490393541874,73.55285640766907,118,2037573,1025422,1012151,1085693,667381,418312,398096,203328,194768,144578,74369,70209,842327,523077,319250,1870543,143476,1345,1540,141,18974,52,53.28,98.71,65.08,41.33
Rajasthan,Rajsamand,25.24894767441859,73.96570215946844,123,1156597,581339,575258,619139,383334,235805,148168,74738,73430,160809,81173,79636,550831,319534,231297,1105676,33677,759,260,100,14966,68,53.53,98.95,65.94,40.99
Rajasthan,Sawai Madhopur,26.251081180223288,76.4219283891548,108,1335551,704031,631520,741748,486184,255564,278789,146333,132456,285848,152745,133103,578068,343802,234266,1165505,155681,945,812,177,9991,42,55.54,89.7,69.06,40.47
Rajasthan,Sikar,27.64644058641976,75.29317422839503,111,2677333,1374990,1302343,1652117,995275,656842,418806,216523,202283,75349,39098,36251,1006504,657854,348650,2342076,327583,1122,356,177,4050,15,61.71,94.72,72.38,50.44
Rajasthan,Sirohi,24.7976905263158,72.75309131578943,117,1036346,534231,502115,476806,309900,166906,201863,104899,96964,292470,148966,143504,419829,272196,147633,996562,30479,1284,572,114,6829,56,46.01,93.99,58.01,33.24
Rajasthan,Tonk,26.153935071707927,75.79192216427637,120,1421326,728136,693190,749659,478329,271330,287903,148110,139793,178207,92677,85530,649161,371848,277313,1243527,153146,754,378,122,22458,30,52.74,95.2,65.69,39.14
Rajasthan,Udaipur,24.44076752136749,73.84029839743584,130,3068420,1566801,1501619,1582629,973444,609185,188525,97094,91431,1525289,773213,752076,1365783,835839,529944,2869976,104307,7406,4278,209,78647,373,51.58,95.84,62.13,40.57
Sikkim,East,27.29600352941175,88.74908392156858,93,1709346,907500,801846,1352998,748382,604616,281422,148019,133403,0,0,0,579692,486951,92741,1410852,178807,15792,53027,2643,46927,366,79.15,88.36,82.47,75.4
Tamil Nadu,Ariyalur,11.190514836795256,79.22249643916912,616,754894,374703,380191,480604,269582,211022,176230,88076,88154,10722,5274,5448,359851,212547,147304,708397,7942,37403,104,88,65,42,63.67,101.46,71.95,55.5
Tamil Nadu,Chennai,13.058098905608748,80.28139151846806,603,4646732,2335844,2310888,3776276,1968079,1808197,779667,389001,390666,10061,5207,4854,1817297,1369302,447995,3751322,439270,358662,2851,2804,51708,1759,81.27,98.93,84.26,78.25
Tamil Nadu,Coimbatore,10.871376995940452,77.07619012178621,632,3458045,1729297,1728748,2635907,1394790,1241117,535911,266960,268951,28342,14245,14097,1567950,1083125,484825,3044145,211035,190314,1112,435,3284,237,76.23,99.97,80.66,71.79
Tamil Nadu,Cuddalore,11.57587300613498,79.63002365371497,617,2605914,1311697,1294217,1815281,1000322,814959,763944,383943,380001,15702,7943,7759,1169880,749633,420247,2391675,123749,83334,401,236,1280,138,69.66,98.67,76.26,62.97
Tamil Nadu,Dharmapuri,12.300141200000006,78.11509813333339,630,1506843,774303,732540,917709,527599,390110,245392,124706,120686,63044,32130,30914,751170,446057,305113,1452956,38304,14089,164,39,37,87,60.9,94.61,68.14,53.25
Tamil Nadu,Dindigul,10.377801390820574,77.78011279554937,612,2159775,1080938,1078837,1481834,816180,665654,452376,225573,226803,8064,4095,3969,1105155,665469,439686,1879494,105012,169945,313,256,71,138,68.61,99.81,75.51,61.7
Tamil Nadu,Erode,11.267012155963302,77.42034334862392,610,2251744,1129868,1121876,1492662,828300,664362,369483,184408,185075,21880,11024,10856,1195773,732083,463690,2115455,76098,55899,435,148,639,157,66.29,99.29,73.31,59.22
Tamil Nadu,Kancheepuram,12.496424756511884,80.08820360135913,604,3998252,2012958,1985294,3013382,1611461,1401921,948081,474264,473817,41210,20605,20605,1673814,1181308,492506,3537399,173785,256762,1620,990,4962,756,75.37,98.63,80.05,70.62
Tamil Nadu,Kanniyakumari,8.183466300191206,77.32053064053538,629,1870374,926345,944029,1548738,780541,768197,74249,36817,37432,7282,3554,3728,679620,524629,154991,909872,78590,876299,160,438,156,10,82.8,101.91,84.26,81.37
Tamil Nadu,Karur,10.79532776617955,78.08749686847604,613,1064493,528184,536309,727044,401726,325318,221385,108809,112576,575,297,278,543298,329034,214264,993666,53292,16483,115,29,7,79,68.3,101.54,76.06,60.66
Tamil Nadu,Madurai,9.904313833333331,78.01366033333332,623,3038252,1526475,1511777,2273430,1223810,1049620,408976,205098,203878,11096,5622,5474,1354632,902704,451928,2760502,168881,97711,520,199,1532,305,74.83,99.04,80.17,69.43
Tamil Nadu,Nagapattinam,10.789468161718286,79.79437299431483,618,1616450,798127,818323,1213008,640916,572092,509767,252332,257435,3756,1847,1909,671994,461174,210820,1435072,128617,47579,184,450,963,110,75.04,102.53,80.3,69.91
Tamil Nadu,Namakkal,11.33766638477801,78.14624841437633,609,1726601,869280,857321,1176131,653312,522819,345392,173973,171419,57059,29383,27676,898245,531463,366782,1673652,32483,16909,183,108,84,199,68.12,98.62,75.16,60.98
Tamil Nadu,Perambalur,11.260137758112096,78.86034011799416,615,565223,282157,283066,375823,208011,167812,175289,87444,87845,2584,1292,1292,299726,162639,137087,521658,32702,10301,83,39,38,26,66.49,100.32,73.72,59.28
Tamil Nadu,Pudukkottai,10.130514816433578,79.05444484265728,621,1618345,803188,815157,1110545,608776,501769,284804,141428,143376,1283,647,636,761693,471099,290594,1428784,114194,72850,119,81,32,293,68.62,101.49,75.79,61.55
Tamil Nadu,Ramanathapuram,9.31286995153476,78.99185362412462,626,1353445,682658,670787,978946,536487,442459,249008,125015,123993,1105,559,546,602977,392751,210226,1047411,208038,91139,154,86,29,36,72.33,98.26,78.59,65.96
Tamil Nadu,Salem,11.629324202127655,78.2478257978723,608,3482056,1781571,1700485,2285562,1285107,1000455,580512,294062,286450,119369,60489,58880,1694160,1083797,610363,3326357,95487,53841,412,174,992,246,65.64,95.45,72.13,58.83
Tamil Nadu,Sivaganga,9.960306580645158,78.56535729032255,622,1339101,668672,670429,959744,526304,433440,227746,113599,114147,790,394,396,620171,391305,228866,1186078,74310,75481,150,80,109,24,71.67,100.26,78.71,64.65
Tamil Nadu,Thanjavur,10.387692255892237,79.3194869107745,620,2405890,1182416,1223474,1790998,944264,846734,455062,225859,229203,3561,1739,1822,974079,680483,293596,2075870,190814,133971,231,795,1256,148,74.44,103.47,79.86,69.21
Tamil Nadu,Theni,9.924066666666668,77.43458833333332,624,1245899,625683,620216,870080,479403,390677,258200,129900,128300,1835,954,881,591642,368900,222742,1148990,56751,37574,152,79,28,74,69.84,99.13,76.62,62.99
Tamil Nadu,Thiruvallur,13.275858101752885,80.19724702864492,602,3728104,1876062,1852042,2791721,1495711,1296010,821646,410526,411120,47243,23692,23551,1538054,1103563,434491,3325823,143093,233633,1422,951,3693,530,74.88,98.72,79.73,69.98
Tamil Nadu,Thiruvarur,10.368927409395978,79.60322893959727,619,1264277,626693,637584,946471,503085,443386,430927,214717,216210,3034,1466,1568,540168,369853,170315,1132785,96092,33192,258,151,279,64,74.86,101.74,80.28,69.54
Tamil Nadu,Tiruvannamalai,12.419318947368414,79.23265631578953,606,2464875,1235889,1228986,1626813,909803,717010,565329,282615,282714,90954,45956,44998,1238177,738995,499182,2294369,91636,66987,232,157,7898,110,66.0,99.44,73.62,58.34
Tamil Nadu,Vellore,12.784882632293078,79.02643283582084,605,3936331,1961688,1974643,2773928,1504355,1269573,860212,424668,435544,72955,36663,36292,1689330,1123874,565456,3397857,414760,111390,676,438,3514,251,70.47,100.66,76.69,64.29
Tamil Nadu,Virudhunagar,9.468872195892564,77.87641469194315,625,1942288,967709,974579,1398788,760375,638413,399831,198704,201127,2294,1182,1112,950158,579111,371047,1822626,47838,67405,245,87,98,75,72.02,100.71,78.57,65.51
Tripura,Dhalai,23.781360477941163,91.94654283088232,291,378230,194544,183686,276217,151643,124574,61688,31461,30227,210608,106759,103849,155831,105657,50174,307120,8256,22940,175,39120,85,206,73.03,94.42,77.95,67.82
Tripura,North Tripura,24.121739755351683,92.17842538226292,292,693947,352860,341087,520402,275646,244756,114968,58375,56593,179426,91116,88310,248667,186034,62633,507967,105737,44062,151,34717,307,70,74.99,96.66,78.12,71.76
Tripura,South Tripura,23.211874098057383,91.6065807585568,290,876001,447544,428457,646810,351082,295728,140168,72012,68156,344835,173174,171661,366845,253229,113616,736015,49258,39258,245,49420,106,808,73.84,95.74,78.45,69.02
Tripura,West Tripura,23.780166241299337,91.41310788863107,289,1725739,879428,846311,1361354,722998,638356,338094,172522,165572,431944,217278,214666,698178,500406,197772,1512801,152791,53622,499,2128,362,430,78.89,96.23,82.21,75.43
Uttar Pradesh,Agra,26.99512974910393,78.05278291517321,146,4418797,2364953,2053844,2680510,1614594,1065916,991325,531641,459684,7255,3827,3428,1389844,1119701,270143,3922718,411313,10076,12057,4049,21508,384,60.66,86.85,68.27,51.9
Uttar Pradesh,Aligarh,27.93748576850093,78.00146831119557,143,3673889,1951996,1721893,2092567,1283380,809187,755254,402483,352771,629,340,289,1174361,929337,245024,2904140,729283,7635,5875,2582,2805,91,56.96,88.21,65.75,46.99
Uttar Pradesh,Allahabad,25.392038662316445,82.05172446982063,175,5954391,3131807,2822584,3665727,2199340,1466387,1309851,687076,622775,7955,4270,3685,2111907,1426110,685797,5102041,796756,13782,4377,4391,2247,305,61.56,90.13,70.23,51.95
Uttar Pradesh,Ambedkar Nagar,26.39119025974028,82.68282142857147,178,2397888,1212410,1185478,1486939,846676,640263,591125,298240,292885,746,406,340,787398,547406,239992,1985654,401678,2536,869,1817,235,33,62.01,97.78,69.83,54.01
Uttar Pradesh,Auraiya,26.66892394014961,79.42637057356607,162,1379545,740040,639505,930836,546198,384638,391622,211413,180209,150,91,59,442023,364543,77480,1273546,101963,1004,371,332,228,444,67.47,86.41,73.81,60.15
Uttar Pradesh,Azamgarh,26.008290954773837,83.01220251256285,191,4613913,2285004,2328909,2771917,1559414,1212503,1171378,579586,591792,9327,4690,4637,1372032,941890,430142,3878626,718692,3810,719,5652,183,226,60.08,101.92,68.25,52.06
Uttar Pradesh,Baghpat,29.045793499999988,77.30266300000001,139,1303048,700070,602978,797970,489858,308112,149060,79920,69140,14,10,4,416695,342604,74091,917474,364583,1840,483,161,16139,25,61.24,86.13,69.97,51.1
Uttar Pradesh,Bahraich,27.691776300578027,81.46779783237004,180,3487731,1843884,1643847,1398368,878285,520083,509307,270226,239081,11159,5606,5553,1152160,895576,256584,2291892,1169330,6400,8212,2793,1177,38,40.09,89.15,47.63,31.64
Uttar Pradesh,Ballia,25.86075638297873,84.03651978723408,193,3239774,1672902,1566872,1963590,1160960,802630,494698,257624,237074,110114,56817,53297,1019483,723060,296423,3004240,213440,4463,892,1595,233,64,60.61,93.66,69.4,51.22
Uttar Pradesh,Balrampur,27.449076537911324,82.47158326180256,182,2148665,1114721,1033944,868357,544943,323414,277212,145928,131284,24887,12657,12230,760253,534332,225921,1333242,805975,3228,900,1866,198,87,40.41,92.75,48.89,31.28
Uttar Pradesh,Banda,25.351885902503284,80.52487391304344,170,1799410,965876,833534,1002937,630626,372311,387855,208184,179671,163,82,81,701689,485314,216375,1637549,157612,1367,231,168,916,50,55.74,86.3,65.29,44.67
Uttar Pradesh,Bara Banki,26.922777025232424,81.35762350597606,176,3260699,1707073,1553626,1692458,1010518,681940,864559,453168,411391,610,333,277,1192850,871241,321609,2505444,737106,4857,2090,1553,3016,211,51.9,91.01,59.2,43.89
Uttar Pradesh,Bareilly,28.51101940789474,79.43187072368416,150,4448359,2357665,2090694,2191759,1342697,849062,557150,295964,261186,3227,1664,1563,1401971,1153006,248965,2830768,1536534,14822,28187,4371,931,339,49.27,88.68,56.95,40.61
Uttar Pradesh,Basti,26.833880454545447,82.69790590909092,185,2464464,1255272,1209192,1393783,819719,574064,513959,262534,251425,3620,1876,1744,783688,558642,225046,2082976,364510,3493,900,9753,107,99,56.56,96.33,65.3,47.48
Uttar Pradesh,Bijnor,29.313974259681096,78.45098815489754,134,3682713,1921215,1761498,2135393,1241471,893922,787444,413872,373572,3058,1588,1470,1088036,921497,166539,2032081,1585210,6184,50624,1736,2134,41,57.98,91.69,64.62,50.75
Uttar Pradesh,Bulandshahr,28.34875862068968,78.01082758620684,142,3499171,1845260,1653911,2031656,1253314,778342,725600,384743,340857,198,118,80,1173260,897815,275445,2707195,777407,4088,2765,669,1572,86,58.06,89.63,67.92,47.06
Uttar Pradesh,Chandauli,25.1180859611231,83.25307062634984,196,1952756,1017905,934851,1174606,699454,475152,446786,235161,211625,41725,21571,20154,652543,462971,189572,1727869,215081,2153,1389,340,100,1175,60.15,91.84,68.72,50.83
Uttar Pradesh,Chitrakoot,25.159924623803,81.07666087551297,171,991730,527721,464009,531072,330339,200733,266655,141379,125276,366,196,170,394197,254977,139220,955372,34559,693,63,101,285,27,53.55,87.93,62.6,43.26
Uttar Pradesh,Deoria,26.42218856548857,83.8244070686071,190,3100946,1537436,1563510,1875239,1079288,795951,468663,235694,232969,109894,54216,55678,876246,639073,237173,2730957,358539,3626,818,1182,209,146,60.47,101.7,70.2,50.91
Uttar Pradesh,Etah,27.591155309734443,78.70021858407083,201,1774480,947339,827141,1055202,647042,408160,281011,150631,130380,140,87,53,545984,440244,105740,1611126,146346,2464,708,2887,5671,18,59.47,87.31,68.3,49.35
